{
  "version": 0.6,
  "generator": "Overpass API 0.7.62.1 084b4234",
  "osm3s": {
    "timestamp_osm_base": "2024-06-11T11:34:02Z",
    "timestamp_areas_base": "2024-06-11T07:37:15Z",
    "copyright": "The data included in this document is from www.openstreetmap.org. The data is made available under ODbL."
  },
  "elements": [
    {
      "type": "node",
      "id": 130124205,
      "lat": 63.4365001,
      "lon": 10.4319641,
      "tags": {
        "amenity": "fuel",
        "branch": "Rosendal",
        "brand": "YX 7-Eleven",
        "car_wash": "yes",
        "email": "711no7506@7-eleven.no",
        "fuel:HGV_diesel": "yes",
        "fuel:diesel": "yes",
        "fuel:octane_95": "yes",
        "hgv": "yes",
        "name": "YX 7-Eleven Rosendal",
        "opening_hours": "24/7",
        "phone": "+47 73526175",
        "ref:yx": "10417506",
        "shop": "yes",
        "trailer:rental": "yes"
      }
    },
    {
      "type": "node",
      "id": 148322126,
      "lat": 63.409949,
      "lon": 10.438926,
      "tags": {
        "branch": "Moholt",
        "brand": "Rema 1000",
        "check_date:opening_hours": "2023-12-03",
        "email": "moholt@rema.no",
        "internet_access": "wlan",
        "name": "Rema 1000 Moholt",
        "opening_hours": "Mo-Sa 07:00-23:00",
        "phone": "+47 73822700",
        "ref:rema": "2091969",
        "shop": "supermarket",
        "wheelchair": "yes"
      }
    },
    {
      "type": "node",
      "id": 155590469,
      "lat": 63.422227,
      "lon": 10.399218,
      "tags": {
        "branch": "Samfundet",
        "brand": "Bunnpris",
        "email": "bpsamfundet@bunnpris.no",
        "name": "Bunnpris Samfundet",
        "opening_hours": "Mo-Fr 08:00-23:00, Sa 09:00-21:00",
        "phone": "+47 73524370",
        "ref:bunnpris": "7594",
        "service:postnord": "yes",
        "shop": "supermarket"
      }
    },
    {
      "type": "node",
      "id": 168842710,
      "lat": 63.4097165,
      "lon": 10.4439421,
      "tags": {
        "branch": "Moholt",
        "brand": "Meny",
        "email": "butikksjef.moholt@meny.no",
        "name": "Meny Moholt",
        "opening_hours": "Mo-Fr 08:00-22:00, Sa 08:00-20:00",
        "phone": "+47 73820200",
        "ref:norgesgruppen": "1271947",
        "shop": "supermarket"
      }
    },
    {
      "type": "node",
      "id": 168842713,
      "lat": 63.412733,
      "lon": 10.431544,
      "tags": {
        "branch": "Moholt",
        "brand": "Bunnpris",
        "brand:wikidata": "Q1774634",
        "email": "bpmoholt@bunnpris.no",
        "name": "Bunnpris Moholt",
        "opening_hours": "Mo-Fr 08:00-23:00, Sa 09:00-21:00, Su 10:00-22:00",
        "phone": "+47 73943070;+47 90830154",
        "ref:bunnpris": "7588",
        "service:posten": "yes",
        "shop": "supermarket"
      }
    },
    {
      "type": "node",
      "id": 175870526,
      "lat": 63.402878,
      "lon": 10.42728,
      "tags": {
        "branch": "Nardo",
        "brand": "Coop Mega",
        "email": "nardo.mega@coop.no",
        "name": "Coop Mega Nardo",
        "opening_hours": "Mo-Fr 08:00-23:00, Sa 09:00-21:00",
        "phone": "+47 73942520",
        "ref:coop": "4365",
        "service:posten": "yes",
        "shop": "supermarket",
        "wheelchair": "yes"
      }
    },
    {
      "type": "node",
      "id": 192644629,
      "lat": 63.3672868,
      "lon": 10.3746413,
      "tags": {
        "amenity": "fuel",
        "branch": "Rosten",
        "brand": "YX 7-Eleven",
        "car_wash": "yes",
        "email": "711no7507@7-eleven.no",
        "fuel:HGV_diesel": "yes",
        "fuel:diesel": "yes",
        "fuel:octane_95": "yes",
        "fuel:octane_98": "yes",
        "fuel:propane": "yes",
        "hgv": "yes",
        "name": "YX 7-Eleven Rosten",
        "opening_hours": "Mo-Fr 06:00-23:00, Sa 09:00-23:00, Su 10:00-23:00",
        "phone": "+47 72885366",
        "ref:yx": "10417507",
        "shop": "yes"
      }
    },
    {
      "type": "node",
      "id": 193629076,
      "lat": 63.387395,
      "lon": 10.330293,
      "tags": {
        "branch": "Stavset",
        "brand": "Rema 1000",
        "email": "stavset@rema.no",
        "name": "Rema 1000 Stavset",
        "opening_hours": "Mo-Sa 07:00-23:00",
        "phone": "+47 72560010",
        "ref:rema": "2092016",
        "service:posten": "yes",
        "shop": "supermarket",
        "wheelchair": "yes"
      }
    },
    {
      "type": "node",
      "id": 210259349,
      "lat": 63.421527,
      "lon": 10.526633,
      "tags": {
        "branch": "Olderdalen",
        "brand": "Coop Prix",
        "email": "olderdalen.prix@coop.no",
        "name": "Coop Prix Olderdalen",
        "opening_hours": "Mo-Sa 07:00-23:00",
        "phone": "+47 40001231",
        "ref:coop": "1808",
        "service:tipping": "yes",
        "shop": "supermarket",
        "website": "http://www.trondos.no/trondos/butikker/prix/olderdalen.php"
      }
    },
    {
      "type": "node",
      "id": 211168452,
      "lat": 63.421105,
      "lon": 10.534483,
      "tags": {
        "branch": "Ranheim",
        "brand": "Rema 1000",
        "brand:wikidata": "Q28459",
        "email": "ranheim@rema.no",
        "name": "Rema 1000 Ranheim",
        "opening_hours": "Mo-Sa 07:00-23:00",
        "phone": "+47 73570230",
        "ref:rema": "2091971",
        "shop": "supermarket"
      }
    },
    {
      "type": "node",
      "id": 220636585,
      "lat": 63.4103851,
      "lon": 10.4414846,
      "tags": {
        "branch": "Moholt",
        "brand": "Kiwi",
        "check_date:opening_hours": "2023-10-31",
        "email": "kiwi.moholt@kiwi.no",
        "name": "Kiwi Moholt",
        "opening_hours": "Mo-Sa 07:00-23:00, Su 10:00-22:00",
        "phone": "+47 73 94 30 52",
        "ref:norgesgruppen": "1097530",
        "shop": "supermarket",
        "wheelchair": "yes"
      }
    },
    {
      "type": "node",
      "id": 226059617,
      "lat": 63.4216828,
      "lon": 10.4469755,
      "tags": {
        "name": "Sumart",
        "shop": "supermarket",
        "website": "https://sumart.no/"
      }
    },
    {
      "type": "node",
      "id": 226059642,
      "lat": 63.4245,
      "lon": 10.4417,
      "tags": {
        "branch": "Valentinlyst",
        "brand": "Coop Mega",
        "email": "valentinlyst.mega@coop.no",
        "name": "Coop Mega Valentinlyst",
        "opening_hours": "Mo-Fr 09:00-22:00, Sa 09:00-20:00",
        "phone": "+47 40001249",
        "ref:coop": "1823",
        "service:tipping": "yes",
        "shop": "supermarket",
        "website": "http://www.trondos.no/trondos/butikker/mega/valentinlyst.php",
        "wheelchair": "yes"
      }
    },
    {
      "type": "node",
      "id": 226059650,
      "lat": 63.4244419,
      "lon": 10.4411489,
      "tags": {
        "branch": "Valentinlyst, Trondheim",
        "brand": "Narvesen",
        "brand:wikidata": "Q6514414",
        "brand:wikipedia": "en:Narvesen",
        "name": "Narvesen",
        "ref:narvesen": "356",
        "shop": "kiosk",
        "wheelchair": "yes"
      }
    },
    {
      "type": "node",
      "id": 226059674,
      "lat": 63.430991,
      "lon": 10.450936,
      "tags": {
        "branch": "Bromstad",
        "brand": "Rema 1000",
        "email": "bromstad@rema.no",
        "name": "Rema 1000 Bromstad",
        "opening_hours": "Mo-Sa 07:00-23:00, Su 11:00-22:00",
        "phone": "+47 73905411",
        "ref:rema": "2091936",
        "shop": "supermarket",
        "website": "https://butikk.rema.no/REMA+1000+Bromstad/445451",
        "wheelchair": "yes"
      }
    },
    {
      "type": "node",
      "id": 245395441,
      "lat": 63.418045,
      "lon": 10.352454,
      "tags": {
        "branch": "By\u00e5sen",
        "brand": "Rema 1000",
        "email": "byasen@rema.no",
        "name": "Rema 1000 By\u00e5sen",
        "opening_hours": "Mo-Sa 07:00-23:00",
        "phone": "+47 72560058",
        "ref:rema": "2091896",
        "shop": "supermarket"
      }
    },
    {
      "type": "node",
      "id": 245395443,
      "lat": 63.4178709,
      "lon": 10.3519329,
      "tags": {
        "name": "Rosenborg Bakeri",
        "shop": "bakery"
      }
    },
    {
      "type": "node",
      "id": 246519025,
      "lat": 63.3918261,
      "lon": 10.3540636,
      "tags": {
        "name": "Ok Minilager",
        "shop": "storage_rental",
        "website": "https://ok-minilager.no/lager/trondelag/trondheim/byasen/"
      }
    },
    {
      "type": "node",
      "id": 246519042,
      "lat": 63.387628,
      "lon": 10.352908,
      "tags": {
        "branch": "Rydningen",
        "brand": "Bunnpris",
        "email": "bprydningen@bunnpris.no",
        "name": "Bunnpris Rydningen",
        "opening_hours": "Mo-Fr 08:00-22:00, Sa 09:00-21:00",
        "phone": "+47 72568440",
        "ref:bunnpris": "7593",
        "service:tipping": "yes",
        "shop": "supermarket",
        "website": "https://bunnpris.no/butikker/bunnpris-rydningen"
      }
    },
    {
      "type": "node",
      "id": 246705060,
      "lat": 63.409337,
      "lon": 10.444628,
      "tags": {
        "branch": "Moholt",
        "brand": "Extra",
        "brand:wikidata": "Q11964085",
        "check_date:opening_hours": "2023-10-31",
        "email": "moholt.extra@coop.no",
        "internet_access": "wlan",
        "name": "Extra Moholt",
        "opening_hours": "Mo-Sa 07:00-23:00",
        "phone": "+47 40001251",
        "ref:coop": "2161",
        "service:posten": "yes",
        "service:tipping": "yes",
        "shop": "supermarket"
      }
    },
    {
      "type": "node",
      "id": 246844288,
      "lat": 63.2651089,
      "lon": 10.4011222,
      "tags": {
        "created_by": "JOSM",
        "shop": "ticket"
      }
    },
    {
      "type": "node",
      "id": 246875581,
      "lat": 63.4477148,
      "lon": 10.4451606,
      "tags": {
        "branch": "Ladetorget",
        "brand": "Rema 1000",
        "check_date": "2023-10-10",
        "email": "ladetorget@rema.no",
        "name": "Rema 1000 Ladetorget",
        "opening_hours": "Mo-Sa 07:00-23:00",
        "payment:cash": "yes",
        "payment:mastercard": "yes",
        "payment:visa": "yes",
        "phone": "+47 73900622",
        "ref:rema": "2091794",
        "service:posten": "yes",
        "shop": "supermarket",
        "wheelchair": "yes"
      }
    },
    {
      "type": "node",
      "id": 246875598,
      "lat": 63.4471519,
      "lon": 10.4444141,
      "tags": {
        "branch": "Lade, Trondheim",
        "brand": "Narvesen",
        "brand:wikidata": "Q6514414",
        "brand:wikipedia": "en:Narvesen",
        "name": "Narvesen",
        "ref:narvesen": "319",
        "shop": "kiosk",
        "wheelchair": "yes"
      }
    },
    {
      "type": "node",
      "id": 248051572,
      "lat": 63.3887852,
      "lon": 10.3964104,
      "tags": {
        "created_by": "JOSM",
        "name": "Storvask",
        "shop": "dry_cleaning"
      }
    },
    {
      "type": "node",
      "id": 252909481,
      "lat": 63.4004764,
      "lon": 10.4022831,
      "tags": {
        "name": "Snap Drive Sluppen",
        "shop": "car_repair",
        "website": "https://www.snapdrive.no/verksteder/trondheim/sluppen/"
      }
    },
    {
      "type": "node",
      "id": 252909482,
      "lat": 63.400481,
      "lon": 10.4006759,
      "tags": {
        "brand": "Saab",
        "created_by": "JOSM",
        "name": "Din bil",
        "parts": "brand",
        "repair": "brand",
        "sale": "yes",
        "shop": "car"
      }
    },
    {
      "type": "node",
      "id": 253759858,
      "lat": 63.3249958,
      "lon": 10.305429,
      "tags": {
        "amenity": "fuel",
        "branch": "E6 Klett",
        "brand": "Circle K",
        "car_wash": "yes",
        "changing_table": "yes",
        "email": "52627@circlekeurope.com",
        "fuel:HGV_diesel": "yes",
        "fuel:adblue": "yes",
        "fuel:diesel": "yes",
        "fuel:octane_95": "yes",
        "fuel:propane": "yes",
        "fuel:taxfree_diesel": "yes",
        "hgv": "yes",
        "internet_access": "wlan",
        "name": "Circle K E6 Klett",
        "opening_hours": "24/7",
        "phone": "+47 72 84 67 90",
        "ref:circlek": "52627",
        "shop": "yes",
        "toilets": "yes",
        "trailer:rental": "yes"
      }
    },
    {
      "type": "node",
      "id": 255113226,
      "lat": 63.436523,
      "lon": 10.424281,
      "tags": {
        "branch": "Buran",
        "brand": "Bunnpris",
        "email": "bpburan@bunnpris.no",
        "name": "Bunnpris Buran",
        "opening_hours": "Mo-Fr 08:00-23:00, Sa 09:00-21:00",
        "phone": "+47 73841390",
        "ref:bunnpris": "7579",
        "service:posten": "yes",
        "shop": "supermarket",
        "wheelchair": "yes"
      }
    },
    {
      "type": "node",
      "id": 255113232,
      "lat": 63.433113,
      "lon": 10.44723,
      "tags": {
        "branch": "Persaunet",
        "brand": "Coop Prix",
        "email": "persaunet.prix@coop.no",
        "name": "Coop Prix Persaunet",
        "opening_hours": "Mo-Fr 08:00-23:00, Sa 09:00-23:00",
        "phone": "+47 73914242",
        "ref:coop": "4705",
        "service:postnord": "yes",
        "service:tipping": "yes",
        "shop": "supermarket"
      }
    },
    {
      "type": "node",
      "id": 260303215,
      "lat": 63.391275,
      "lon": 10.42075,
      "tags": {
        "branch": "Stubban",
        "brand": "Bunnpris",
        "brand:wikidata": "Q1774634",
        "brand:wikipedia": "en:Bunnpris",
        "email": "bpstubban@bunnpris.no",
        "name": "Bunnpris Stubban",
        "opening_hours": "Mo-Fr 08:00-22:00, Sa 09:00-21:00",
        "phone": "+47 73966120",
        "ref:bunnpris": "7598",
        "service:postnord": "yes",
        "service:tipping": "yes",
        "shop": "supermarket"
      }
    },
    {
      "type": "node",
      "id": 276822137,
      "lat": 63.3688438,
      "lon": 10.3950268,
      "tags": {
        "branch": "Sjetnemarka",
        "brand": "Coop Prix",
        "email": "sjetnemarka.prix@coop.no",
        "name": "Coop Prix Sjetnemarka",
        "opening_hours": "Mo-Fr 07:00-22:00, Sa 08:00-21:00",
        "phone": "+47 40001239",
        "ref:coop": "1816",
        "service:postnord": "yes",
        "service:tipping": "yes",
        "shop": "supermarket"
      }
    },
    {
      "type": "node",
      "id": 291073606,
      "lat": 63.361877,
      "lon": 10.389449,
      "tags": {
        "branch": "Tonstad",
        "brand": "Bunnpris",
        "email": "bptonstad@bunnpris.no",
        "name": "Bunnpris Tonstad",
        "opening_hours": "Mo-Fr 07:00-22:00, Sa 09:00-22:00, Su 11:00-22:00",
        "phone": "+47 72887992",
        "ref:bunnpris": "8101",
        "shop": "supermarket"
      }
    },
    {
      "type": "node",
      "id": 305721516,
      "lat": 63.422619,
      "lon": 10.149234,
      "tags": {
        "branch": "Rye",
        "brand": "Coop Marked",
        "email": "rye.marked@coop.no",
        "name": "Coop Marked Rye",
        "opening_hours": "Mo-Fr 09:00-20:00, Sa 09:00-18:00",
        "phone": "+47 72843610",
        "ref:coop": "1640",
        "service:posten": "yes",
        "service:postnord": "yes",
        "shop": "supermarket"
      }
    },
    {
      "type": "node",
      "id": 305721639,
      "lat": 63.355669,
      "lon": 10.164235,
      "tags": {
        "branch": "Byneset",
        "brand": "Extra",
        "check_date:opening_hours": "2024-04-06",
        "diet:halal": "yes",
        "email": "byneset.extra@coop.no",
        "name": "Extra Byneset",
        "opening_hours": "Mo-Sa 07:00-23:00",
        "phone": "+47 40001240",
        "ref:coop": "1817",
        "service:postnord": "yes",
        "service:tipping": "yes",
        "shop": "supermarket",
        "wheelchair": "yes"
      }
    },
    {
      "type": "node",
      "id": 356905428,
      "lat": 63.4332181,
      "lon": 10.4474105,
      "tags": {
        "name": "Persaunet H\u00e5rsenter",
        "opening_hours": "Mo,We,Th 09:00-19:00; Tu,Fr 09:00-16:30",
        "shop": "hairdresser"
      }
    },
    {
      "type": "node",
      "id": 379826532,
      "lat": 63.4314124,
      "lon": 10.4032191,
      "tags": {
        "check_date": "2023-09-07",
        "shop": "vacant"
      }
    },
    {
      "type": "node",
      "id": 379844101,
      "lat": 63.4338579,
      "lon": 10.4152445,
      "tags": {
        "name": "Rosenborg bakeri",
        "opening_hours": "Mo-Fr 06:15-18:00; Sa 07:00-18:00; Su 08:00-17:00",
        "shop": "bakery",
        "wheelchair": "limited"
      }
    },
    {
      "type": "node",
      "id": 382917154,
      "lat": 63.43211,
      "lon": 10.393687,
      "tags": {
        "branch": "Munkegaten",
        "brand": "Bunnpris",
        "brand:wikidata": "Q1774634",
        "email": "bpmunkegate@bunnpris.no",
        "name": "Bunnpris Munkegaten",
        "opening_hours": "Mo-Fr 07:00-23:00, Sa 09:00-21:00",
        "phone": "+47 73521700",
        "ref:bunnpris": "7589",
        "service:postnord": "yes",
        "shop": "supermarket",
        "wheelchair": "yes"
      }
    },
    {
      "type": "node",
      "id": 386579876,
      "lat": 63.432708,
      "lon": 10.3933552,
      "tags": {
        "name": "Mozart",
        "opening_hours": "Mo-Tu 10:00-17:00; We-Th 10:00-18:00; Fr 10:00-17:00; Sa 10:00-15:00",
        "shop": "hairdresser",
        "website": "https://www.facebook.com/MozartFrisor",
        "wheelchair": "limited"
      }
    },
    {
      "type": "node",
      "id": 386579884,
      "lat": 63.4310094,
      "lon": 10.3952086,
      "tags": {
        "amenity": "cafe",
        "indoor_seating": "yes",
        "name": "Hevd h\u00e5ndverksbakeri",
        "opening_hours": "Mo-Sa 09:30-17:00",
        "outdoor_seating": "yes",
        "shop": "bakery",
        "website": "https://hevd.no/"
      }
    },
    {
      "type": "node",
      "id": 386579889,
      "lat": 63.4324183,
      "lon": 10.3944759,
      "tags": {
        "brand": "Flying Tiger Copenhagen",
        "name": "TGR Trondheim",
        "opening_hours": "Mo-Fr 10:00-20:00; Sa 10:00-18:00",
        "operator": "Flying Tiger",
        "shop": "variety_store",
        "short_name": "Flying Tiger",
        "website": "http://tgr-stores.no/sv-se/countries/norway/stores/trondheim%20-%20tgr%20trondheim",
        "wheelchair": "no"
      }
    },
    {
      "type": "node",
      "id": 386579898,
      "lat": 63.431781,
      "lon": 10.397879,
      "tags": {
        "branch": "Dronningens gate 7, Trondheim",
        "brand": "Narvesen",
        "brand:wikidata": "Q6514414",
        "brand:wikipedia": "en:Narvesen",
        "name": "Narvesen",
        "opening_hours": "Mo-Fr 07:30-21:00, Sa 08:30-19:00, Su 11:00-19:00",
        "operator": "Narvesen",
        "ref:narvesen": "347",
        "shop": "kiosk",
        "website": "http://narvesen.no/",
        "wheelchair": "yes"
      }
    },
    {
      "type": "node",
      "id": 386579908,
      "lat": 63.430634,
      "lon": 10.39733,
      "tags": {
        "brand": "Ark bokhandel",
        "brand:wikidata": "Q11958706",
        "name": "Ark Brunhj\u00f8rnet Trondheim",
        "opening_hours": "Mo-Fr 09:00-19:00; Sa 10:00-18:00",
        "shop": "books",
        "website": "https://www.ark.no/butikker/trondheim/ark-brunhjornet-trondheim",
        "wheelchair": "yes"
      }
    },
    {
      "type": "node",
      "id": 387530378,
      "lat": 63.432379,
      "lon": 10.41731,
      "tags": {
        "branch": "Rosenborg",
        "brand": "Bunnpris",
        "email": "bprosenborg@bunnpris.no",
        "name": "Bunnpris Rosenborg",
        "opening_hours": "Mo-Fr 08:00-22:00, Sa 09:00-21:00",
        "phone": "+47 47769274",
        "ref:bunnpris": "7592",
        "service:posten": "yes",
        "service:postnord": "yes",
        "service:tipping": "yes",
        "shop": "supermarket",
        "wheelchair": "yes"
      }
    },
    {
      "type": "node",
      "id": 418609156,
      "lat": 63.3859208,
      "lon": 10.3728428,
      "tags": {
        "brand": "Peugeot",
        "name": "Pr\u00f8ven Bil AS",
        "shop": "car"
      }
    },
    {
      "type": "node",
      "id": 431038571,
      "lat": 63.4176247,
      "lon": 10.4041519,
      "tags": {
        "level": "1",
        "name": "SiT Storkiosk",
        "operator": "Studentsamskipnaden i Trondheim",
        "shop": "convenience",
        "wheelchair": "yes"
      }
    },
    {
      "type": "node",
      "id": 436632347,
      "lat": 63.37375,
      "lon": 10.346593,
      "tags": {
        "branch": "Flat\u00e5sen",
        "brand": "Extra",
        "email": "flatasen.extra@coop.no",
        "name": "Extra Flat\u00e5sen",
        "opening_hours": "Mo-Sa 07:00-23:00",
        "phone": "+47 40001241",
        "ref:coop": "1818",
        "service:tipping": "yes",
        "shop": "supermarket",
        "wheelchair": "yes"
      }
    },
    {
      "type": "node",
      "id": 440474728,
      "lat": 63.416812,
      "lon": 10.404898,
      "tags": {
        "brand": "Akademika",
        "email": "gloshaugen@akademika.no",
        "level": "2",
        "name": "Akademika Gl\u00f8shaugen",
        "opening_hours": "Mo-Fr 08:00-16:00",
        "phone": "+47 90 69 78 94",
        "shop": "books",
        "website": "https://www.akademika.no/butikker/akademika-gloshaugen",
        "wheelchair": "yes",
        "wikidata": "Q11957096",
        "wikipedia": "no:Akademika"
      }
    },
    {
      "type": "node",
      "id": 528932013,
      "lat": 63.3764792,
      "lon": 10.4278028,
      "tags": {
        "name": "Leira gartneri",
        "shop": "garden_centre"
      }
    },
    {
      "type": "node",
      "id": 530187931,
      "lat": 63.3586174,
      "lon": 10.3736552,
      "tags": {
        "alt_name": "Plantasjen Trondheim - Tiller",
        "branch": "Tiller",
        "brand": "Plantasjen",
        "email": "tiller.bl@plantasjen.no",
        "name": "Plantasjen Tiller",
        "opening_hours": "Mo-Fr 10:00-20:00, Sa 10:00-18:00, Su 12:00-18:00",
        "phone": "+47 72 89 93 00",
        "ref:plantasjen": "261",
        "shop": "garden_centre",
        "wheelchair": "yes"
      }
    },
    {
      "type": "node",
      "id": 530890482,
      "lat": 63.431803,
      "lon": 10.392311,
      "tags": {
        "branch": "Prinsens gate",
        "brand": "Rema 1000",
        "brand:wikidata": "Q28459",
        "email": "prinsensgate@rema.no",
        "name": "Rema 1000 Prinsens gate",
        "opening_hours": "Mo-Sa 07:00-23:00; PH off; Easter-1day 16:00+ off; Easter +48 days 16:00+ off; Dec Su 14:00-20:00; Dec 24 15:00+ off; Dec 24 Su off; Dec 31 18:00+ off; Dec 31 Su off",
        "phone": "+47 73536030",
        "ref:rema": "2091726",
        "shop": "supermarket",
        "website": "https://www.rema.no/butikker/trondelag/trondheim/rema-1000-prinsensgate",
        "wheelchair": "yes"
      }
    },
    {
      "type": "node",
      "id": 530915939,
      "lat": 63.433197,
      "lon": 10.399932,
      "tags": {
        "branch": "Olav Tryggvasons gate",
        "brand": "Rema 1000",
        "brand:wikidata": "Q28459",
        "email": "olav.tryggvason@rema.no",
        "name": "Rema 1000 Olav Tryggvasons gate",
        "opening_hours": "Mo-Sa 07:00-23:00; PH off; Easter-1day 16:00+ off; Easter +48 days 16:00+ off; Dec Su 14:00-20:00; Dec 24 15:00+ off; Dec 24 Su off; Dec 31 18:00+ off; Dec 31 Su off",
        "phone": "+47 73522949",
        "ref:rema": "2091909",
        "shop": "supermarket",
        "website": "https://www.rema.no/butikker/sor-trondelag/trondheim/rema-1000-olav-tryggvasonsgate/",
        "wheelchair": "yes"
      }
    },
    {
      "type": "node",
      "id": 530941409,
      "lat": 63.4310473,
      "lon": 10.3923386,
      "tags": {
        "name": "Specsavers Trondheim",
        "opening_hours": "Mo-Fr 09:00-17:00; Th 09:00-18:00; Sa 10:00-16:00; PH off",
        "operator": "Specsavers",
        "phone": "+47 73 87 66 60",
        "shop": "optician",
        "website": "https://www.specsavers.no/finn-din-butikk/trondheim"
      }
    },
    {
      "type": "node",
      "id": 530956404,
      "lat": 63.43243,
      "lon": 10.395715,
      "tags": {
        "name": "SweetGate",
        "opening_hours": "Mo-Sa 09:00-18:00",
        "shop": "confectionery",
        "website": "https://sweetgate.no/"
      }
    },
    {
      "type": "node",
      "id": 530959422,
      "lat": 63.432507,
      "lon": 10.395667,
      "tags": {
        "name": "Eplehuset",
        "opening_hours": "Mo-Sa 10:00-18:00",
        "shop": "computer",
        "wheelchair": "yes"
      }
    },
    {
      "type": "node",
      "id": 532019151,
      "lat": 63.4079854,
      "lon": 10.3976133,
      "tags": {
        "branch": "Tempe",
        "brand": "Extra",
        "email": "tempe.extra@coop.no",
        "name": "Extra Tempe",
        "opening_hours": "Mo-Sa 07:00-23:00",
        "phone": "+47 73945611",
        "ref:coop": "4361",
        "service:posten": "yes",
        "service:tipping": "yes",
        "shop": "supermarket"
      }
    },
    {
      "type": "node",
      "id": 532019436,
      "lat": 63.4083218,
      "lon": 10.3978226,
      "tags": {
        "branch": "Tempe",
        "brand": "7-Eleven",
        "brand:wikidata": "Q259340",
        "brand:wikipedia": "en:7-Eleven",
        "name": "7-Eleven Tempe",
        "ref:7eleven": "7511",
        "shop": "convenience"
      }
    },
    {
      "type": "node",
      "id": 533963399,
      "lat": 63.4086415,
      "lon": 10.4684999,
      "tags": {
        "name": "SiT Storkiosk Dragvoll",
        "operator": "Studentsamskipnaden i Trondheim",
        "shop": "convenience"
      }
    },
    {
      "type": "node",
      "id": 535199058,
      "lat": 63.408112,
      "lon": 10.46946,
      "tags": {
        "brand": "Akademika",
        "email": "dragvoll@akademika.no",
        "name": "Akademika Dragvoll",
        "opening_hours": "Mo-Fr 09:00-16:00",
        "operator": "Studentsamskipnaden i Trondheim",
        "phone": "+47 55384332",
        "second_hand": "no",
        "shop": "books",
        "website": "https://www.akademika.no/butikker/akademika-dragvoll",
        "wheelchair": "yes"
      }
    },
    {
      "type": "node",
      "id": 543383668,
      "lat": 63.4213196,
      "lon": 10.3932219,
      "tags": {
        "name": "SiT Storkiosk \u00d8ya",
        "operator": "Studentsamskipnaden i Trondheim",
        "shop": "convenience",
        "wheelchair": "yes"
      }
    },
    {
      "type": "node",
      "id": 543393716,
      "lat": 63.4391288,
      "lon": 10.4835632,
      "tags": {
        "name": "SiT Tapir Rotvoll",
        "operator": "Studentsamskipnaden i Trondheim",
        "shop": "books"
      }
    },
    {
      "type": "node",
      "id": 546144125,
      "lat": 63.428428,
      "lon": 10.3875985,
      "tags": {
        "name": "SiT Akademika kalvskinnet",
        "opening_hours": "Mo-Sa 08:30-15:30",
        "operator": "Studentsamskipnaden i Trondheim",
        "shop": "books",
        "website": "https://www.akademika.no/butikker/akademika-kalvskinnet"
      }
    },
    {
      "type": "node",
      "id": 576100719,
      "lat": 63.4064466,
      "lon": 10.4009537,
      "tags": {
        "name": "Snap Drive Sorgenfri",
        "shop": "car_repair"
      }
    },
    {
      "type": "node",
      "id": 628626611,
      "lat": 63.431333,
      "lon": 10.406636,
      "tags": {
        "branch": "Bakklandet",
        "brand": "Rema 1000",
        "brand:wikidata": "Q28459",
        "email": "bakklandet@rema.no",
        "name": "Rema 1000 Bakklandet",
        "opening_hours": "Mo-Sa 07:00-23:00; PH off; Easter-1day 16:00+ off; Easter +48 days 16:00+ off; Dec Su 14:00-20:00; Dec 24 15:00+ off; Dec 24 Su off; Dec 31 18:00+ off; Dec 31 Su off",
        "phone": "+47 73529610",
        "ref:rema": "1540002",
        "service:posten": "yes",
        "shop": "supermarket",
        "website": "https://www.rema.no/butikker/sor-trondelag/trondheim/rema-1000-bakklandet/",
        "wheelchair": "yes"
      }
    },
    {
      "type": "node",
      "id": 628626613,
      "lat": 63.43181,
      "lon": 10.407819,
      "tags": {
        "branch": "Bakklandet",
        "brand": "Bunnpris",
        "brand:wikidata": "Q1774634",
        "email": "bpbakklandet@bunnpris.no",
        "name": "Bunnpris Bakklandet",
        "opening_hours": "Mo-Fr 07:00-23:00, Sa 09:00-22:00, Su 10:00-22:00",
        "ref:bunnpris": "7577",
        "shop": "supermarket",
        "wheelchair": "yes"
      }
    },
    {
      "type": "node",
      "id": 713897548,
      "lat": 63.4031619,
      "lon": 10.4278199,
      "tags": {
        "name": "Nardo fris\u00f8rsenter",
        "shop": "hairdresser",
        "wheelchair": "limited"
      }
    },
    {
      "type": "node",
      "id": 807246873,
      "lat": 63.3365072,
      "lon": 10.3533527,
      "tags": {
        "brand": "Fretex",
        "name": "Fretex Heimdal",
        "phone": "+47 72595915",
        "ref:fretex": "136",
        "shop": "charity"
      }
    },
    {
      "type": "node",
      "id": 840542886,
      "lat": 63.4351749,
      "lon": 10.4114171,
      "tags": {
        "branch": "Solsiden",
        "brand": "Meny",
        "email": "butikksjef.solsiden@meny.no",
        "level": "0",
        "name": "Meny Solsiden",
        "opening_hours": "Mo-Fr 08:00-22:00, Sa 09:00-20:00",
        "phone": "+47 73 83 14 50",
        "ref:norgesgruppen": "1150426",
        "shop": "supermarket",
        "website": "https://meny.no/Finn-butikk/MENY-Solsiden/",
        "wheelchair": "yes"
      }
    },
    {
      "type": "node",
      "id": 845442046,
      "lat": 63.4312926,
      "lon": 10.3922766,
      "tags": {
        "name": "AtB kundesenter",
        "opening_hours": "Mo-Fr 08:00-18:00; Sa 10:00-17:00; Su, PH 10:00-17:00",
        "shop": "ticket",
        "website": "https://www.atb.no/kontakt/"
      }
    },
    {
      "type": "node",
      "id": 956343601,
      "lat": 63.4318418,
      "lon": 10.3939051,
      "tags": {
        "check_date": "2023-05-09",
        "name": "Deli de Luca Munkegata",
        "opening_hours": "24/7",
        "operator": "Deli de Luca",
        "shop": "convenience",
        "website": "http://delideluca.no/finn-oss/#trondelag",
        "wheelchair": "yes"
      }
    },
    {
      "type": "node",
      "id": 979961110,
      "lat": 63.419012,
      "lon": 10.430887,
      "tags": {
        "branch": "Tyholt",
        "brand": "Bunnpris",
        "email": "bptyholt@bunnpris.no",
        "name": "Bunnpris & Gourmet Tyholt",
        "opening_hours": "Mo-Fr 08:00-23:00, Sa 09:00-22:00",
        "phone": "+47 73935210",
        "ref:bunnpris": "7604",
        "service:catering": "yes",
        "service:tipping": "yes",
        "shop": "supermarket"
      }
    },
    {
      "type": "node",
      "id": 1000568759,
      "lat": 63.431054,
      "lon": 10.360204,
      "tags": {
        "branch": "Ila",
        "brand": "Extra",
        "email": "ila.extra@coop.no",
        "name": "Extra Ila",
        "opening_hours": "Mo-Sa 07:00-23:00",
        "phone": "+47 40001226",
        "ref:coop": "2427",
        "service:posten": "yes",
        "service:tipping": "yes",
        "shop": "supermarket"
      }
    },
    {
      "type": "node",
      "id": 1017759979,
      "lat": 63.44428,
      "lon": 10.440244,
      "tags": {
        "branch": "Lade",
        "brand": "Bunnpris",
        "email": "bplade@bunnpris.no",
        "name": "Bunnpris Lade",
        "opening_hours": "Mo-Fr 08:00-23:00, Sa 09:00-21:00",
        "phone": "+47 73526069",
        "ref:bunnpris": "7585",
        "service:pharmacy": "yes",
        "service:postnord": "yes",
        "service:tipping": "yes",
        "shop": "supermarket",
        "wheelchair": "yes"
      }
    },
    {
      "type": "node",
      "id": 1023726487,
      "lat": 63.3930733,
      "lon": 10.4023758,
      "tags": {
        "brand": "Nissan",
        "email": "info@witro.no",
        "name": "Witro Bil Trondheim",
        "phone": "+47 73 83 20 00",
        "ref:nissan": "500",
        "service:vehicle:car_repair": "yes",
        "service:vehicle:new_car_sales": "yes",
        "service:vehicle:used_car_sales": "yes",
        "shop": "car",
        "website": "https://www.witro.no/"
      }
    },
    {
      "type": "node",
      "id": 1200404358,
      "lat": 63.436493,
      "lon": 10.416296,
      "tags": {
        "branch": "Solsiden",
        "brand": "Rema 1000",
        "email": "solsiden@rema.no",
        "name": "Rema 1000 Solsiden",
        "opening_hours": "Mo-Sa 07:00-23:00, Su 11:00-22:00",
        "phone": "+47 73521380",
        "ref:rema": "1553243",
        "shop": "supermarket",
        "wheelchair": "yes"
      }
    },
    {
      "type": "node",
      "id": 1262669877,
      "lat": 63.413785,
      "lon": 10.4156301,
      "tags": {
        "shop": "laundry"
      }
    },
    {
      "type": "node",
      "id": 1271268055,
      "lat": 63.40713,
      "lon": 10.358796,
      "tags": {
        "name": "Agaton Sax",
        "shop": "hairdresser"
      }
    },
    {
      "type": "node",
      "id": 1271462037,
      "lat": 63.4072526,
      "lon": 10.358847,
      "tags": {
        "shop": "beauty"
      }
    },
    {
      "type": "node",
      "id": 1291411191,
      "lat": 63.4404952,
      "lon": 10.4037651,
      "tags": {
        "name": "Piraten",
        "shop": "hairdresser",
        "wheelchair": "yes"
      }
    },
    {
      "type": "node",
      "id": 1296779392,
      "lat": 63.4199952,
      "lon": 10.3865504,
      "tags": {
        "branch": "St. Olav Akutten",
        "brand": "Narvesen",
        "brand:wikidata": "Q6514414",
        "brand:wikipedia": "en:Narvesen",
        "level": "1",
        "name": "Narvesen",
        "ref:narvesen": "141",
        "shop": "kiosk",
        "wheelchair": "yes"
      }
    },
    {
      "type": "node",
      "id": 1373859711,
      "lat": 63.353503,
      "lon": 10.355301,
      "tags": {
        "branch": "Heimdal",
        "brand": "Spar",
        "email": "spar.heimdal@spar.no",
        "name": "Spar Heimdal",
        "opening_hours": "Mo-Fr 08:00-22:00, Sa 09:00-21:00",
        "phone": "+47 72597220",
        "ref:norgesgruppen": "1361891",
        "service:tipping": "yes",
        "shop": "supermarket"
      }
    },
    {
      "type": "node",
      "id": 1373859712,
      "lat": 63.353412,
      "lon": 10.356878,
      "tags": {
        "branch": "Heimdal",
        "brand": "Bunnpris",
        "email": "bpheimdal@bunnpris.no",
        "name": "Bunnpris Heimdal",
        "opening_hours": "Mo-Fr 08:00-22:00, Sa 09:00-21:00",
        "phone": "+47 72846466",
        "ref:bunnpris": "7581",
        "service:posten": "yes",
        "service:postnord": "yes",
        "service:tipping": "yes",
        "shop": "supermarket",
        "wheelchair": "yes"
      }
    },
    {
      "type": "node",
      "id": 1373921219,
      "lat": 63.3515919,
      "lon": 10.3565241,
      "tags": {
        "name": "G-Sport Trondheim AS",
        "service:bicycle:repair": "yes",
        "service:bicycle:retail": "yes",
        "shop": "sports",
        "website": "http://www.gsporttrondheim.no/",
        "wheelchair": "yes"
      }
    },
    {
      "type": "node",
      "id": 1373921224,
      "lat": 63.3519275,
      "lon": 10.355706,
      "tags": {
        "name": "Arne Johansens Fisk",
        "shop": "seafood"
      }
    },
    {
      "type": "node",
      "id": 1373921226,
      "lat": 63.351663,
      "lon": 10.354107,
      "tags": {
        "branch": "Heimdal",
        "brand": "Rema 1000",
        "email": "heimdal@rema.no",
        "name": "Rema 1000 Heimdal",
        "opening_hours": "Mo-Sa 07:00-23:00",
        "phone": "+47 72846680",
        "ref:rema": "2091912",
        "shop": "supermarket",
        "wheelchair": "yes"
      }
    },
    {
      "type": "node",
      "id": 1373921228,
      "lat": 63.351633,
      "lon": 10.356385,
      "tags": {
        "branch": "S\u00f8bstadveien, Heimdal",
        "brand": "Narvesen",
        "brand:wikidata": "Q6514414",
        "brand:wikipedia": "en:Narvesen",
        "name": "Narvesen",
        "ref:narvesen": "159",
        "shop": "kiosk",
        "wheelchair": "yes"
      }
    },
    {
      "type": "node",
      "id": 1373921229,
      "lat": 63.35164,
      "lon": 10.356025,
      "tags": {
        "name": "Heimdal Blomster",
        "shop": "florist",
        "wheelchair": "limited"
      }
    },
    {
      "type": "node",
      "id": 1373921231,
      "lat": 63.3518265,
      "lon": 10.3556872,
      "tags": {
        "name": "Hoff Mote",
        "shop": "clothes"
      }
    },
    {
      "type": "node",
      "id": 1381677677,
      "lat": 63.353923,
      "lon": 10.379841,
      "tags": {
        "branch": "Rognbudalen",
        "brand": "Rema 1000",
        "email": "rognbudalen@rema.no",
        "name": "Rema 1000 Rognbudalen",
        "opening_hours": "Mo-Sa 07:00-23:00",
        "phone": "+47 72555500",
        "ref:rema": "2082272",
        "shop": "supermarket"
      }
    },
    {
      "type": "node",
      "id": 1427194518,
      "lat": 63.423045,
      "lon": 10.389784,
      "tags": {
        "branch": "\u00d8ya",
        "brand": "Coop Prix",
        "email": "oya.prix@coop.no",
        "name": "Coop Prix \u00d8ya",
        "opening_hours": "Mo-Fr 07:00-23:00, Sa 08:00-23:00",
        "phone": "+47 40001225",
        "ref:coop": "1802",
        "service:tipping": "yes",
        "shop": "supermarket",
        "wheelchair": "yes"
      }
    },
    {
      "type": "node",
      "id": 1433533635,
      "lat": 63.366527,
      "lon": 10.348765,
      "tags": {
        "branch": "Kolstad",
        "brand": "Extra",
        "email": "kolstad.extra@coop.no",
        "name": "Extra Kolstad",
        "opening_hours": "Mo-Sa 07:00-23:00",
        "phone": "+47 40001245",
        "ref:coop": "1822",
        "service:posten": "yes",
        "service:postnord": "yes",
        "service:tipping": "yes",
        "shop": "supermarket",
        "wheelchair": "yes"
      }
    },
    {
      "type": "node",
      "id": 1459891917,
      "lat": 63.4099802,
      "lon": 10.4396236,
      "tags": {
        "branch": "Trondheim",
        "brand": "Bohus",
        "email": "trondheim@bohus.no",
        "name": "Bohus Trondheim",
        "opening_hours": "Mo-Fr 10:00-20:00, Sa 10:00-18:00",
        "phone": "+47 73804300",
        "ref:bohus": "2495",
        "shop": "furniture",
        "website": "https://www.bohus.no/mobler/trondelag/trondheim-1"
      }
    },
    {
      "type": "node",
      "id": 1583880267,
      "lat": 63.4094531,
      "lon": 10.445065,
      "tags": {
        "female": "yes",
        "male": "yes",
        "name": "Cowboys + Angels",
        "shop": "hairdresser"
      }
    },
    {
      "type": "node",
      "id": 1589656442,
      "lat": 63.399012,
      "lon": 10.439192,
      "tags": {
        "shop": "laundry"
      }
    },
    {
      "type": "node",
      "id": 1589691582,
      "lat": 63.399023,
      "lon": 10.436077,
      "tags": {
        "branch": "Vestlia",
        "brand": "Bunnpris",
        "email": "bpvestlia@bunnpris.no",
        "name": "Bunnpris Vestlia",
        "opening_hours": "Mo-Fr 08:00-22:00, Sa 09:00-21:00",
        "phone": "+47 73962892",
        "ref:bunnpris": "7601",
        "service:postnord": "yes",
        "service:tipping": "yes",
        "shop": "supermarket"
      }
    },
    {
      "type": "node",
      "id": 1596649011,
      "lat": 63.4032343,
      "lon": 10.427532,
      "tags": {
        "name": "Floriss",
        "shop": "florist"
      }
    },
    {
      "type": "node",
      "id": 1651440040,
      "lat": 63.4134228,
      "lon": 10.4133081,
      "tags": {
        "name": "Fris\u00f8rn",
        "opening_hours": "Temporary Closed",
        "shop": "hairdresser",
        "unisex": "yes"
      }
    },
    {
      "type": "node",
      "id": 1666929775,
      "lat": 63.419396,
      "lon": 10.395361,
      "tags": {
        "branch": "Elgeseter",
        "brand": "Bunnpris",
        "email": "bpelgeseter@bunnpris.no",
        "name": "Bunnpris & Gourmet Elgeseter",
        "opening_hours": "Mo-Fr 07:00-23:00, Sa 09:00-23:00",
        "phone": "+47 73533265",
        "ref:bunnpris": "7574",
        "service:posten": "yes",
        "service:tipping": "yes",
        "shop": "supermarket"
      }
    },
    {
      "type": "node",
      "id": 1667274375,
      "lat": 63.4320217,
      "lon": 10.4075668,
      "tags": {
        "name": "Mix Bakke Bru",
        "shop": "kiosk",
        "wheelchair": "yes"
      }
    },
    {
      "type": "node",
      "id": 1768092001,
      "lat": 63.4330355,
      "lon": 10.3928576,
      "tags": {
        "check_date:opening_hours": "2021-07-03",
        "name": "Asia matvarer",
        "opening_hours": "Mo-Sa 10:00-17:00",
        "shop": "convenience",
        "website": "https://www.facebook.com/pages/Asia-Matvarer-Trondheim/181700391852466"
      }
    },
    {
      "type": "node",
      "id": 1768092010,
      "lat": 63.4329877,
      "lon": 10.3919931,
      "tags": {
        "shop": "vacant"
      }
    },
    {
      "type": "node",
      "id": 1768856456,
      "lat": 63.4405382,
      "lon": 10.4639638,
      "tags": {
        "name": "Franske Nytelser",
        "opening_hours": "Mo-Fr 06:00-17:00; Sa 08:00-17:00",
        "shop": "bakery",
        "website": "https://franskenytelser.no/"
      }
    },
    {
      "type": "node",
      "id": 1834028918,
      "lat": 63.3514148,
      "lon": 10.3553373,
      "tags": {
        "name": "Heimdal Optik",
        "shop": "optician",
        "wheelchair": "no"
      }
    },
    {
      "type": "node",
      "id": 1834028927,
      "lat": 63.351573,
      "lon": 10.35586,
      "tags": {
        "name": "Melhus Bakeri",
        "shop": "bakery"
      }
    },
    {
      "type": "node",
      "id": 1834028929,
      "lat": 63.3517243,
      "lon": 10.3539629,
      "tags": {
        "name": "Nille",
        "shop": "variety_store"
      }
    },
    {
      "type": "node",
      "id": 1834502430,
      "lat": 63.3536933,
      "lon": 10.3592281,
      "tags": {
        "name": "Mestergruppen",
        "shop": "trade",
        "trade": "building_supplies"
      }
    },
    {
      "type": "node",
      "id": 1850218236,
      "lat": 63.432567,
      "lon": 10.39789,
      "tags": {
        "name": "Blow fris\u00f8r",
        "opening_hours": "Mo-Fr 10:00-19:00; Sa 10:00-17:00",
        "phone": "+47 73 80 91 10",
        "shop": "hairdresser",
        "website": "https://blowhairdressing.no/"
      }
    },
    {
      "type": "node",
      "id": 1850218249,
      "lat": 63.431189,
      "lon": 10.3979,
      "tags": {
        "name": "H2 Fris\u00f8r Nordre",
        "opening_hours": "Mo-Fr 09:00-19:00; Sa 09:00-18:00",
        "operator": "H2",
        "phone": "+47 73 80 76 09",
        "shop": "hairdresser",
        "website": "https://www.h2.no/h2-frisor-nordre/"
      }
    },
    {
      "type": "node",
      "id": 1850218266,
      "lat": 63.432552,
      "lon": 10.397025,
      "tags": {
        "shop": "vacant",
        "wheelchair": "yes"
      }
    },
    {
      "type": "node",
      "id": 1850218269,
      "lat": 63.432611,
      "lon": 10.397156,
      "tags": {
        "name": "Weekday",
        "opening_hours": "Mo-Sa 10:00-18:00; Th 10:00-19:00",
        "operator": "Weekday",
        "phone": "+47 73 52 30 52",
        "shop": "clothes",
        "website": "https://www.weekday.com/",
        "wheelchair": "yes"
      }
    },
    {
      "type": "node",
      "id": 1850218275,
      "lat": 63.4327813,
      "lon": 10.3970237,
      "tags": {
        "branch": "Thomas Angells gate",
        "brand": "7-Eleven",
        "email": "thangelsgate.711no7099@7-eleven.no",
        "name": "7-Eleven Thomas Angells gate",
        "opening_hours": "Mo-Th 06:00-01:00, Fr,Sa 08:00-04:00, Su 08:00-24:00",
        "phone": "+47 48126585",
        "ref:7eleven": "7099",
        "shop": "convenience",
        "wheelchair": "yes"
      }
    },
    {
      "type": "node",
      "id": 1850218302,
      "lat": 63.4322701,
      "lon": 10.3977634,
      "tags": {
        "check_date:opening_hours": "2024-02-26",
        "name": "Norli",
        "opening_hours": "Mo-Fr 09:00-18:00; Sa 10:00-18:00",
        "operator": "Norli",
        "shop": "books",
        "website": "https://www.norli.no/"
      }
    },
    {
      "type": "node",
      "id": 1879192978,
      "lat": 63.42126,
      "lon": 10.3570371,
      "tags": {
        "shop": "ticket"
      }
    },
    {
      "type": "node",
      "id": 1879192994,
      "lat": 63.4213233,
      "lon": 10.3570862,
      "tags": {
        "shop": "gift"
      }
    },
    {
      "type": "node",
      "id": 1884992174,
      "lat": 63.4095024,
      "lon": 10.4434273,
      "tags": {
        "name": "Mester Gr\u00f8nn",
        "shop": "florist"
      }
    },
    {
      "type": "node",
      "id": 1933407832,
      "lat": 63.427491,
      "lon": 10.40335,
      "tags": {
        "contact:email": "arve@sykkelbua.com",
        "contact:phone": "+47 73 53 55 53",
        "name": "Sykkelbua",
        "opening_hours": "Mo-Fr 08:00-12:00,13:00-16:30",
        "repair": "only",
        "retail": "no",
        "service:bicycle:repair": "yes",
        "service:bicycle:retail": "no",
        "shop": "bicycle",
        "website": "https://www.sykkelbua.com/"
      }
    },
    {
      "type": "node",
      "id": 2068607070,
      "lat": 63.3637545,
      "lon": 10.3778633,
      "tags": {
        "branch": "Trondheim-Tiller",
        "brand": "Byggmax",
        "name": "Byggmax Trondheim-Tiller",
        "ref:byggmax": "2202",
        "shop": "trade",
        "trade": "building_supplies",
        "website": "https://www.byggmax.no/butikker/trondheim-tiller/"
      }
    },
    {
      "type": "node",
      "id": 2068607072,
      "lat": 63.3637906,
      "lon": 10.3797844,
      "tags": {
        "name": "By\u00e5sen bakeri",
        "shop": "bakery"
      }
    },
    {
      "type": "node",
      "id": 2068607078,
      "lat": 63.3682002,
      "lon": 10.3805578,
      "tags": {
        "branch": "Tiller",
        "brand": "Jysk",
        "name": "Jysk Tiller",
        "opening_hours": "Mo-Fr 10:00-20:00, Sa 10:00-18:00",
        "phone": "+47 72881875",
        "ref:jysk": "N584",
        "shop": "furniture"
      }
    },
    {
      "type": "node",
      "id": 2068607083,
      "lat": 63.3643361,
      "lon": 10.3803154,
      "tags": {
        "name": "Maling 1000",
        "shop": "paint"
      }
    },
    {
      "type": "node",
      "id": 2068607098,
      "lat": 63.3630729,
      "lon": 10.3775472,
      "tags": {
        "name": "Sigdal",
        "shop": "kitchen"
      }
    },
    {
      "type": "node",
      "id": 2068607099,
      "lat": 63.3682973,
      "lon": 10.3812022,
      "tags": {
        "name": "Stoff og stil",
        "shop": "fabric"
      }
    },
    {
      "type": "node",
      "id": 2105538644,
      "lat": 63.398622,
      "lon": 10.365054,
      "tags": {
        "name": "iPhonREP Trondheim AS",
        "shop": "doityourself",
        "website": "www.iphonerep.no"
      }
    },
    {
      "type": "node",
      "id": 2112026737,
      "lat": 63.421502,
      "lon": 10.494073,
      "tags": {
        "branch": "Charlottenlund",
        "brand": "Coop Prix",
        "email": "charlottenlund.prix@coop.no",
        "name": "Coop Prix Charlottenlund",
        "opening_hours": "Mo-Fr 07:00-23:00, Sa 08:00-23:00",
        "phone": "+47 40001232",
        "ref:coop": "1809",
        "service:posten": "yes",
        "service:tipping": "yes",
        "shop": "supermarket"
      }
    },
    {
      "type": "node",
      "id": 2165713555,
      "lat": 63.434493,
      "lon": 10.40399,
      "tags": {
        "name": "4Sound",
        "opening_hours": "Mo-Fr 10:00-18:00; Sa 10:00-15:00; Su off",
        "operator": "4SOUND",
        "shop": "music",
        "website": "https://www.4sound.no/trondheim"
      }
    },
    {
      "type": "node",
      "id": 2194784989,
      "lat": 63.4220435,
      "lon": 10.400098,
      "tags": {
        "name": "lucas-bygget, student residence",
        "opening_hours": "24/7",
        "shop": "laundry"
      }
    },
    {
      "type": "node",
      "id": 2195105232,
      "lat": 63.4217794,
      "lon": 10.4039234,
      "tags": {
        "name": "H. Solli",
        "opening_hours": "Mo-Fr 08:30-16:30; Sa 09:00-13:00",
        "shop": "hairdresser"
      }
    },
    {
      "type": "node",
      "id": 2275990844,
      "lat": 63.430416,
      "lon": 10.419996,
      "tags": {
        "branch": "Rosenborg",
        "brand": "Rema 1000",
        "brand:wikidata": "Q28459",
        "email": "rosenborg@rema.no",
        "name": "Rema 1000 Rosenborg",
        "opening_hours": "Mo-Sa 07:00-23:00, Su 11:00-22:00",
        "phone": "+47 73524886",
        "ref:rema": "2091903",
        "shop": "supermarket"
      }
    },
    {
      "type": "node",
      "id": 2281414756,
      "lat": 63.433825,
      "lon": 10.397817,
      "tags": {
        "name": "VIC CJ",
        "opening_hours": "Mo-Fr 10:00-18:00; Sa 10:00-16:00",
        "shop": "clothes",
        "website": "https://www.vic.no/?menu=45"
      }
    },
    {
      "type": "node",
      "id": 2281414758,
      "lat": 63.4339957,
      "lon": 10.3977039,
      "tags": {
        "shop": "vacant"
      }
    },
    {
      "type": "node",
      "id": 2281438086,
      "lat": 63.43678,
      "lon": 10.425575,
      "tags": {
        "craft": "dressmaker",
        "name": "Bunads\u00f8m Helens systue",
        "opening_hours": "Mo-Fr 09:00-16:00",
        "phone": "+47 90 72 74 68",
        "shop": "clothes",
        "website": "http://www.helenssystue.com/"
      }
    },
    {
      "type": "node",
      "id": 2288474222,
      "lat": 63.4381176,
      "lon": 10.4632417,
      "tags": {
        "clothes:sports": "yes",
        "name": "XXL Lade",
        "opening_hours": "Mo-Fr 10:00-20:00; Sa 10:00-18:00",
        "service:bicycle:repair": "yes",
        "service:bicycle:retail": "yes",
        "shop": "sports",
        "sport": "bicycle",
        "website": "https://www.xxl.no/"
      }
    },
    {
      "type": "node",
      "id": 2288482885,
      "lat": 63.4315426,
      "lon": 10.3916622,
      "tags": {
        "name": "Axel Bruun",
        "opening_hours": "Mo-Sa 09:00-18:00",
        "phone": "+47 73 53 20 93",
        "service:bicycle:repair": "yes",
        "service:bicycle:retail": "yes",
        "shop": "sports",
        "website": "https://www.bruun.no/",
        "wheelchair": "no"
      }
    },
    {
      "type": "node",
      "id": 2288482886,
      "lat": 63.4346397,
      "lon": 10.3966373,
      "tags": {
        "alt_name": "Ting i transit",
        "check_date": "2023-07-26",
        "name": "Transit",
        "opening_hours": "Mo-Sa 10:00-18:00; Su 12:00-17:00",
        "shop": "second_hand",
        "website": "https://transit-shop.no/"
      }
    },
    {
      "type": "node",
      "id": 2288491905,
      "lat": 63.3576566,
      "lon": 10.3742861,
      "tags": {
        "name": "G-Sport Tillertorget",
        "service:bicycle:repair": "yes",
        "service:bicycle:retail": "yes",
        "shop": "sports"
      }
    },
    {
      "type": "node",
      "id": 2288491907,
      "lat": 63.3568605,
      "lon": 10.3738808,
      "tags": {
        "name": "XXL Tiller",
        "opening_hours": "Mo-Fr 10:00-20:00; Sa 10:00-18:00",
        "service:bicycle:repair": "yes",
        "service:bicycle:retail": "yes",
        "shop": "sports",
        "website": "https://www.xxl.no/store-finder/XXL%20Trondheim,%20Tiller"
      }
    },
    {
      "type": "node",
      "id": 2288497306,
      "lat": 63.4345737,
      "lon": 10.4014681,
      "tags": {
        "name": "Elleve",
        "opening_hours": "We-Fr 11:00-17:00; Sa 11:00-15:00",
        "service:bicycle:repair": "yes",
        "service:bicycle:retail": "yes",
        "shop": "bicycle",
        "website": "http://www.e11.no/"
      }
    },
    {
      "type": "node",
      "id": 2296716183,
      "lat": 63.424984,
      "lon": 10.442737,
      "tags": {
        "alt_name": "Vinmonopolet Trondheim, Valentinlyst",
        "branch": "Valentinlyst",
        "brand": "Vinmonopolet",
        "brand:wikidata": "Q1740534",
        "brand:wikipedia": "en:Vinmonopolet",
        "level": "-1",
        "name": "Vinmonopolet Valentinlyst",
        "opening_hours": "Mo-Fr 10:00-18:00, Sa 10:00-16:00",
        "phone": "+47 22 01 50 00",
        "ref:vinmonopolet": "180",
        "shop": "alcohol"
      }
    },
    {
      "type": "node",
      "id": 2340408486,
      "lat": 63.3740666,
      "lon": 10.3456619,
      "tags": {
        "branch": "Flat\u00e5sen",
        "brand": "Europris",
        "brand:wikidata": "Q17770215",
        "email": "ep390@europris.no",
        "facebook": "https://www.facebook.com/pages/Europris-Flat%C3%A5sen/258847417638940",
        "name": "Europris Flat\u00e5sen",
        "opening_hours": "Mo-Fr 09:00-20:00, Sa 09:00-18:00",
        "phone": "+47 95361658",
        "ref:europris": "390",
        "shop": "general",
        "wheelchair": "yes"
      }
    },
    {
      "type": "node",
      "id": 2396212690,
      "lat": 63.4413114,
      "lon": 10.4602961,
      "tags": {
        "branch": "Megastore Lade",
        "brand": "Elkj\u00f8p",
        "level": "0",
        "name": "Elkj\u00f8p Megastore Lade",
        "opening_hours": "Mo-Fr 10:00-20:00; Sa 10:00-18:00",
        "phone": "+47 73847248",
        "ref:elkj\u00f8p": "1242",
        "shop": "electronics",
        "website": "https://www.elkjop.no/INTERSHOP/web/WFS/store-elkjop-Site/no_NO/-/NOK/ViewStoreFinder-Start?mapStore=fKQKeQuvLvcAAAEoLPE7Uj8l"
      }
    },
    {
      "type": "node",
      "id": 2413561338,
      "lat": 63.4280179,
      "lon": 10.4026963,
      "tags": {
        "branch": "\u00d8vre Bakkland",
        "brand": "7-Eleven",
        "email": "ovre_bakklandet.711no7103@7-eleven.no",
        "name": "7-Eleven \u00d8vre Bakkland",
        "opening_hours": "Mo-Th 07:00-24:00, Fr 07:00-03:00, Sa 08:00-03:00, Su 08:00-24:00",
        "phone": "+47 73531860",
        "ref:7eleven": "7103",
        "shop": "convenience",
        "wheelchair": "yes"
      }
    },
    {
      "type": "node",
      "id": 2446449906,
      "lat": 63.4328961,
      "lon": 10.3999324,
      "tags": {
        "name": "Skandinavisk H\u00f8yfjellsutstyr",
        "opening_hours": "Mo-Fr 10:00-18:00; Sa 10:00-16:00",
        "shop": "outdoor",
        "website": "https://www.shutrondheim.no/",
        "wheelchair": "yes"
      }
    },
    {
      "type": "node",
      "id": 2453488961,
      "lat": 63.4356838,
      "lon": 10.4139784,
      "tags": {
        "check_date:opening_hours": "2022-02-27",
        "name": "Cowboys & Angels",
        "opening_hours": "Mo-Fr 10:00-18:00, Sa 10:00-15:00",
        "shop": "hairdresser"
      }
    },
    {
      "type": "node",
      "id": 2498375798,
      "lat": 63.434044,
      "lon": 10.503594,
      "tags": {
        "branch": "Grilstad",
        "brand": "Extra",
        "email": "grilstad.extra@coop.no",
        "name": "Extra Grilstad",
        "opening_hours": "Mo-Sa 07:00-23:00, Su 10:00-22:00",
        "phone": "+47 40001278",
        "ref:coop": "2502",
        "service:posten": "yes",
        "service:postnord": "yes",
        "service:tipping": "yes",
        "shop": "supermarket",
        "website": "http://www.trondos.no/trondos/butikker/extra/grilstad.php",
        "wheelchair": "yes"
      }
    },
    {
      "type": "node",
      "id": 2498375802,
      "lat": 63.4341948,
      "lon": 10.5030177,
      "tags": {
        "name": "H2O",
        "shop": "hairdresser"
      }
    },
    {
      "type": "node",
      "id": 2579173987,
      "lat": 63.431295,
      "lon": 10.389805,
      "tags": {
        "female": "yes",
        "male": "yes",
        "name": "Gr\u00f8nn Spire",
        "opening_hours": "Mo-Fr 10:00-17:00; Th 10:00-18:00; Sa 09:00-14:00",
        "shop": "hairdresser",
        "website": "http://gronnspire.no/",
        "wheelchair": "no"
      }
    },
    {
      "type": "node",
      "id": 2586616731,
      "lat": 63.435362,
      "lon": 10.412651,
      "tags": {
        "alt_name": "Vinmonopolet Trondheim, Nedre Elvehavn",
        "branch": "Nedre Elvehavn",
        "brand": "Vinmonopolet",
        "brand:wikidata": "Q1740534",
        "brand:wikipedia": "en:Vinmonopolet",
        "name": "Vinmonopolet Nedre Elvehavn",
        "opening_hours": "Mo-Fr 10:00-18:00, Sa 10:00-16:00",
        "phone": "+47 22 01 50 00",
        "ref:solsiden": "301",
        "ref:vinmonopolet": "322",
        "shop": "alcohol"
      }
    },
    {
      "type": "node",
      "id": 2586616732,
      "lat": 63.4350957,
      "lon": 10.4132249,
      "tags": {
        "name": "Sjakk Matt",
        "ref:solsiden": "302",
        "shop": "hairdresser"
      }
    },
    {
      "type": "node",
      "id": 2586616733,
      "lat": 63.4350945,
      "lon": 10.4113259,
      "tags": {
        "brand": "Clas Ohlson",
        "brand:wikidata": "Q3356220",
        "brand:wikipedia": "en:Clas Ohlson",
        "level": "1",
        "name": "Clas Ohlson",
        "opening_hours": "Mo-Fr 09:00-21:00; Sa 09:00-18:00",
        "shop": "doityourself",
        "website": "https://www.clasohlson.com/no/"
      }
    },
    {
      "type": "node",
      "id": 2671914147,
      "lat": 63.429929,
      "lon": 10.36845,
      "tags": {
        "branch": "Ila",
        "brand": "Bunnpris",
        "email": "bpila@bunnpris.no",
        "name": "Bunnpris Ila",
        "opening_hours": "Mo-Fr 08:00-22:00, Sa 09:00-22:00, Su 10:00-22:00",
        "phone": "+47 73527778",
        "ref:bunnpris": "7582",
        "service:postnord": "yes",
        "shop": "supermarket"
      }
    },
    {
      "type": "node",
      "id": 2698855834,
      "lat": 63.359563,
      "lon": 10.375511,
      "tags": {
        "branch": "Tiller",
        "brand": "Rema 1000",
        "email": "tiller@rema.no",
        "name": "Rema 1000 Tiller",
        "opening_hours": "Mo-Sa 07:00-23:00",
        "phone": "+47 72880892",
        "ref:rema": "2091723",
        "service:posten": "yes",
        "shop": "supermarket"
      }
    },
    {
      "type": "node",
      "id": 2905986801,
      "lat": 63.415413,
      "lon": 10.399031,
      "tags": {
        "branch": "Elgeseter",
        "brand": "Rema 1000",
        "check_date:opening_hours": "2024-03-25",
        "email": "elgeseter@rema.no",
        "name": "Rema 1000 Elgeseter",
        "opening_hours": "Mo-Sa 07:00-23:00",
        "phone": "+47 97082690",
        "ref:rema": "1968912",
        "shop": "supermarket"
      }
    },
    {
      "type": "node",
      "id": 2934040874,
      "lat": 63.4306666,
      "lon": 10.3990605,
      "tags": {
        "name": "Mester Gr\u00f8nn Mercursenteret",
        "opening_hours": "Mo-Fr 10:00-20:00; Sa 10:00-18:00",
        "operator": "Mester Gr\u00f8nn",
        "shop": "florist",
        "website": "https://www.mestergronn.no/blomsterbutikk/trondheim/mercursenteret/"
      }
    },
    {
      "type": "node",
      "id": 2952475340,
      "lat": 63.4473624,
      "lon": 10.4436014,
      "tags": {
        "branch": "Lade",
        "brand": "Bygger'n",
        "name": "Bygger'n Lade",
        "opening_hours": "Mo-Fr 06:30-20:00, Sa 09:00-16:00",
        "phone": "+47 73 84 37 00",
        "ref:byggern": "2701",
        "shop": "trade",
        "trade": "building_supplies",
        "website": "https://www.byggern.no/butikker/bygger-n-lade/"
      }
    },
    {
      "type": "node",
      "id": 2952478228,
      "lat": 63.4340418,
      "lon": 10.4570817,
      "tags": {
        "name": "Nidars fabrikkutsalg",
        "opening_hours": "Tu-Fr 10:00-18:00; Sa 10:00-15:00; Mo,Su off",
        "shop": "confectionery"
      }
    },
    {
      "type": "node",
      "id": 2957446673,
      "lat": 63.433172,
      "lon": 10.398906,
      "tags": {
        "name": "Livid Jeans",
        "shop": "clothes",
        "website": "https://www.lividjeans.com/"
      }
    },
    {
      "type": "node",
      "id": 2957446978,
      "lat": 63.431116,
      "lon": 10.400377,
      "tags": {
        "email": "hei@techstudio.no",
        "mobile_phone:repair": "yes",
        "name": "Tech Studio AS",
        "opening_hours": "Mo-Fr 08:00-16:00",
        "phone": "+47 91 92 58 58",
        "shop": "repair",
        "website": "https://techstudio.no/"
      }
    },
    {
      "type": "node",
      "id": 2958692370,
      "lat": 63.443929,
      "lon": 10.429279,
      "tags": {
        "addr:city": "Trondheim",
        "addr:housenumber": "12",
        "addr:postcode": "7041",
        "addr:street": "Ladebekken",
        "email": "post@farmacura.no",
        "name": "farmacura.no",
        "opening_hours": "Mo-Fr 08:00-16:00",
        "operator": "Bj\u00f8rkli Invest",
        "phone": "+4747860607",
        "shop": "medical_supply",
        "website": "https://farmacura.no/"
      }
    },
    {
      "type": "node",
      "id": 2958731394,
      "lat": 63.437021,
      "lon": 10.434133,
      "tags": {
        "name": "Stiluett fris\u00f8r",
        "opening_hours": "Mo-Fr 09:00-18:00; Sa 10:00-16:00",
        "phone": "+47 73 53 30 50",
        "shop": "hairdresser",
        "website": "https://stiluett.no/"
      }
    },
    {
      "type": "node",
      "id": 2962728714,
      "lat": 63.4242846,
      "lon": 10.44246,
      "tags": {
        "name": "Brillehuset Synsam Valentinlyst",
        "shop": "optician"
      }
    },
    {
      "type": "node",
      "id": 2962728715,
      "lat": 63.42437,
      "lon": 10.4428083,
      "tags": {
        "name": "MX Sport",
        "shop": "sports"
      }
    },
    {
      "type": "node",
      "id": 2962728716,
      "lat": 63.424323,
      "lon": 10.441186,
      "tags": {
        "name": "Tropehagen Zoo",
        "shop": "pet"
      }
    },
    {
      "type": "node",
      "id": 2968030050,
      "lat": 63.434226,
      "lon": 10.415051,
      "tags": {
        "branch": "M\u00f8llenberg",
        "brand": "Rema 1000",
        "check_date:opening_hours": "2024-01-27",
        "email": "mollenberg@rema.no",
        "name": "Rema 1000 M\u00f8llenberg",
        "opening_hours": "Mo-Sa 07:00-23:00",
        "phone": "+47 73531212",
        "ref:rema": "1544970",
        "shop": "supermarket"
      }
    },
    {
      "type": "node",
      "id": 2968030051,
      "lat": 63.440352,
      "lon": 10.404193,
      "tags": {
        "branch": "Pirsenteret",
        "brand": "Rema 1000",
        "check_date:opening_hours": "2024-05-30",
        "email": "pirsenteret@rema.no",
        "name": "Rema 1000 Pirsenteret",
        "opening_hours": "Mo-Fr 06:00-22:00, Sa 09:00-18:00",
        "phone": "+47 73514510",
        "ref:rema": "1544528",
        "shop": "supermarket",
        "wheelchair": "yes"
      }
    },
    {
      "type": "node",
      "id": 2993892277,
      "lat": 63.4294978,
      "lon": 10.3690258,
      "tags": {
        "alt_name": "StudiO intercoiffure",
        "name": "StudiO fris\u00f8rer",
        "opening_hours": "Mo,Tu 10:00-18:00; We 09:00-18:00; Th 10:00-20:00; Fr 09:00-17:00",
        "shop": "hairdresser",
        "website": "https://studio.as/"
      }
    },
    {
      "type": "node",
      "id": 3004633896,
      "lat": 63.409712,
      "lon": 10.418101,
      "tags": {
        "branch": "Nardobakken",
        "brand": "Kiwi",
        "brand:wikidata": "Q1613639",
        "brand:wikipedia": "no:Kiwi (store)",
        "email": "kiwi.nardobakken@kiwi.no",
        "name": "Kiwi Nardobakken",
        "opening_hours": "Mo-Sa 07:00-23:00",
        "phone": "+47 73938031",
        "ref:norgesgruppen": "3530578",
        "shop": "supermarket",
        "wheelchair": "yes"
      }
    },
    {
      "type": "node",
      "id": 3039410655,
      "lat": 63.4207954,
      "lon": 10.4639492,
      "tags": {
        "branch": "Trondheim",
        "brand": "Skeidar",
        "email": "trondheim@skeidar.no",
        "name": "Skeidar Trondheim",
        "opening_hours": "Mo-Fr 10:00-19:00, Sa 10:00-18:00",
        "phone": "+47 72 89 48 00",
        "ref:skeidar": "9907",
        "shop": "furniture",
        "website": "https://www.skeidar.no/butikker/trondelag/trondheim/",
        "wheelchair": "yes"
      }
    },
    {
      "type": "node",
      "id": 3052351984,
      "lat": 63.4347981,
      "lon": 10.3983058,
      "tags": {
        "name": "Agdars Sportsfiske",
        "opening_hours": "Mo-Fr 09:30-17:00; Sa 10:00-15:00",
        "shop": "fishing",
        "website": "https://agdars.no/"
      }
    },
    {
      "type": "node",
      "id": 3052351985,
      "lat": 63.4331686,
      "lon": 10.3917723,
      "tags": {
        "check_date:opening_hours": "2021-07-03",
        "name": "Freaks Tattoo Parlour",
        "opening_hours": "Mo-Fr 10:00-18:00; Sa 10:00-15:00",
        "shop": "tattoo",
        "website": "https://www.facebook.com/FreaksTattoo/"
      }
    },
    {
      "type": "node",
      "id": 3052351987,
      "lat": 63.434911,
      "lon": 10.4017057,
      "tags": {
        "check_date": "2023-07-26",
        "name": "Industri & Marine-Diesel",
        "opening_hours": "Mo-We,Fr 09:00-17:00; Th 09:00-18:00; Sa 10:00-15:00",
        "shop": "boat",
        "website": "https://imd.no/"
      }
    },
    {
      "type": "node",
      "id": 3052351989,
      "lat": 63.4347273,
      "lon": 10.3980618,
      "tags": {
        "name": "Bl\u00e5smo Musikk",
        "opening_hours": "Mo-Fr 10:00-16:30; Th 10:00-17:00; Sa 10:00-13:00",
        "shop": "musical_instrument",
        "website": "https://blaasmomusikk.no/",
        "wheelchair": "yes"
      }
    },
    {
      "type": "node",
      "id": 3052351991,
      "lat": 63.4347168,
      "lon": 10.3976955,
      "tags": {
        "name": "Sykkelpikene Trondheim",
        "opening_hours": "Tu-Fr 10:00-17:00; Sa 10:00-16:00; PH,Su,Mo off",
        "shop": "bicycle",
        "website": "https://www.sykkelpikene.no/"
      }
    },
    {
      "type": "node",
      "id": 3052351993,
      "lat": 63.4347257,
      "lon": 10.3982202,
      "tags": {
        "email": "info@nidarosdata.no",
        "name": "Nidaros Data",
        "opening_hours": "Mo-Sa 10:00-18:00",
        "phone": "+47 73 51 88 00",
        "ref:mobit": "148",
        "shop": "computer",
        "website": "https://www.nidarosdata.no",
        "wheelchair": "yes"
      }
    },
    {
      "type": "node",
      "id": 3052351996,
      "lat": 63.4347905,
      "lon": 10.3987697,
      "tags": {
        "check_date:opening_hours": "2023-08-27",
        "name": "Falkanger Sko Den Gr\u00f8nne Brygge",
        "opening_hours": "Mo-Sa 09:00-18:00",
        "shop": "shoes",
        "website": "https://www.falkanger.no/",
        "wheelchair": "yes"
      }
    },
    {
      "type": "node",
      "id": 3052351998,
      "lat": 63.4347808,
      "lon": 10.3989845,
      "tags": {
        "brand": "Fretex",
        "name": "Fretex Fjordgata",
        "opening_hours": "Mo-Fr 10:00-18:00; Sa 11:00-17:00",
        "phone": "+47 47971331",
        "ref:fretex": "117",
        "second_hand": "only",
        "shop": "charity",
        "website": "https://www.fretex.no/bruktbutikker-vintage-og-secondhand/finn-naermeste-bruktbutikk/midt-norge/trondheim/fjordgata-40"
      }
    },
    {
      "type": "node",
      "id": 3052351999,
      "lat": 63.4348112,
      "lon": 10.3993103,
      "tags": {
        "check_date": "2023-07-26",
        "name": "Gardinbrygga",
        "opening_hours": "Mo-Fr 10:00-16:30; Sa 10:00-15:00",
        "shop": "curtain",
        "wheelchair": "yes"
      }
    },
    {
      "type": "node",
      "id": 3052352000,
      "lat": 63.4346089,
      "lon": 10.3961224,
      "tags": {
        "check_date:opening_hours": "2023-09-20",
        "name": "Garnhuset",
        "opening_hours": "Mo-Fr 10:00-17:00; Sa 10:00-16:00",
        "shop": "fabric",
        "website": "https://www.facebook.com/GarnhusetTrondheim",
        "wheelchair": "yes"
      }
    },
    {
      "type": "node",
      "id": 3052352008,
      "lat": 63.4349061,
      "lon": 10.4011989,
      "tags": {
        "name": "Klar, ferdig - sy!",
        "opening_hours": "Mo-Fr 10:00-16:00; Th 10:00-18:00; Sa 10:00-15:00",
        "shop": "clothes",
        "website": "https://www.klarferdigsy.no/",
        "wheelchair": "yes"
      }
    },
    {
      "type": "node",
      "id": 3052352009,
      "lat": 63.4347167,
      "lon": 10.3978933,
      "tags": {
        "check_date:opening_hours": "2022-10-08",
        "name": "Panduro Hobby",
        "opening_hours": "Mo-Sa 10:00-18:00",
        "shop": "craft",
        "website": "http://www.pandurohobby.no/",
        "wheelchair": "yes"
      }
    },
    {
      "type": "node",
      "id": 3052352010,
      "lat": 63.4337786,
      "lon": 10.3923889,
      "tags": {
        "shop": "vacant"
      }
    },
    {
      "type": "node",
      "id": 3052352011,
      "lat": 63.4339097,
      "lon": 10.3923659,
      "tags": {
        "shop": "vacant"
      }
    },
    {
      "type": "node",
      "id": 3052352012,
      "lat": 63.4343957,
      "lon": 10.3947876,
      "tags": {
        "check_date:opening_hours": "2022-06-26",
        "name": "Sengemakeriet",
        "opening_hours": "Mo-Fr 10:00-18:00; Sa 10:00-16:00",
        "shop": "furniture",
        "website": "http://www.sengemakeriet.com/"
      }
    },
    {
      "type": "node",
      "id": 3052352013,
      "lat": 63.4348507,
      "lon": 10.3998086,
      "tags": {
        "check_date": "2023-07-26",
        "email": "trondheim@gjenbruken.no",
        "name": "Gjenbruken Trondheim",
        "opening_hours": "Mi-Fr 11:00-17:00; Sa 11:00-15:00",
        "phone": "+47 40 44 34 64",
        "second_hand": "only",
        "shop": "second_hand",
        "website": "https://gjenbruken.no/trondheim/"
      }
    },
    {
      "type": "node",
      "id": 3052352018,
      "lat": 63.431655,
      "lon": 10.38484,
      "tags": {
        "name": "Trondheim Turistforening",
        "opening_hours": "Mo-Fr 10:00-17:00; Th 10:00-18:00; Sa 10:00-15:00",
        "operator": "Den Norske Turistforening",
        "shop": "outdoor",
        "website": "https://www.tt.no/",
        "wheelchair": "yes"
      }
    },
    {
      "type": "node",
      "id": 3054450111,
      "lat": 63.4318408,
      "lon": 10.3877321,
      "tags": {
        "name": "Rammeverkstedet",
        "opening_hours": "Mo-Th 09:00-17:00; Sa 10:00-15:00; Fr 10:00-17:00",
        "shop": "frame",
        "website": "https://www.rammeverkstedet.no/",
        "wheelchair": "no"
      }
    },
    {
      "type": "node",
      "id": 3054450112,
      "lat": 63.4315881,
      "lon": 10.3865941,
      "tags": {
        "name": "Trondheim Sysenter",
        "opening_hours": "Mo-Th 09:00-16:00; Fr 09:00-15:00; Sa 10:00-13:00",
        "shop": "sewing_machines",
        "website": "http://www.trondheimsysenter.no/"
      }
    },
    {
      "type": "node",
      "id": 3056289074,
      "lat": 63.434203,
      "lon": 10.3952262,
      "tags": {
        "name": "Athina Fris\u00f8r & Velv\u00e6re",
        "shop": "hairdresser",
        "website": "https://www.facebook.com/pages/Athina-Fris%C3%B8r-Velv%C3%A6re/338789627940"
      }
    },
    {
      "type": "node",
      "id": 3056289078,
      "lat": 63.4290461,
      "lon": 10.3910868,
      "tags": {
        "level": "0",
        "name": "Chez Marie Beauty parlour",
        "opening_hours": "Mo,Tu,Fr 09:00-16:00; We,Th 10:00-18:00",
        "shop": "beauty"
      }
    },
    {
      "type": "node",
      "id": 3056289079,
      "lat": 63.4339716,
      "lon": 10.3942835,
      "tags": {
        "name": "Broderisenteret",
        "shop": "fabric",
        "website": "http://www.broderisenteret.no/"
      }
    },
    {
      "type": "node",
      "id": 3056289083,
      "lat": 63.4330404,
      "lon": 10.3924797,
      "tags": {
        "name": "Extreme Fitness Store",
        "shop": "sports",
        "sport": "bodybuilding",
        "website": "https://www.extremefitness.no/"
      }
    },
    {
      "type": "node",
      "id": 3056289084,
      "lat": 63.4334267,
      "lon": 10.3938771,
      "tags": {
        "name": "Gullgalleriet",
        "shop": "jewelry",
        "website": "https://www.facebook.com/pages/Gullgalleriet-As/176568519062180",
        "wheelchair": "no"
      }
    },
    {
      "type": "node",
      "id": 3056289087,
      "lat": 63.4344924,
      "lon": 10.3989671,
      "tags": {
        "name": "Rom til rom",
        "shop": "furniture",
        "website": "https://www.romtilrom.no/"
      }
    },
    {
      "type": "node",
      "id": 3056289088,
      "lat": 63.4343096,
      "lon": 10.3957964,
      "tags": {
        "name": "Skibs- & Fiskeriutstyr",
        "shop": "boat",
        "website": "http://www.skibsogfiskeriutstyr.no/"
      }
    },
    {
      "type": "node",
      "id": 3056289089,
      "lat": 63.433041,
      "lon": 10.3926398,
      "tags": {
        "name": "Thevenin",
        "shop": "computer",
        "website": "http://www.thevenin.no/"
      }
    },
    {
      "type": "node",
      "id": 3056289091,
      "lat": 63.4346232,
      "lon": 10.402837,
      "tags": {
        "name": "Walhalla",
        "shop": "speciality",
        "website": "http://www.walhalla.no/"
      }
    },
    {
      "type": "node",
      "id": 3060093859,
      "lat": 63.4344915,
      "lon": 10.3987301,
      "tags": {
        "name": "Enten Eller fris\u00f8r",
        "shop": "hairdresser",
        "website": "https://www.enten-eller.no/"
      }
    },
    {
      "type": "node",
      "id": 3060093860,
      "lat": 63.434625,
      "lon": 10.396004,
      "tags": {
        "name": "Symann Tran",
        "opening_hours": "Mo-Fr 09:00-18:00; Sa 10:00-15:00",
        "shop": "tailor",
        "website": "https://www.symann.no/"
      }
    },
    {
      "type": "node",
      "id": 3060093865,
      "lat": 63.4316241,
      "lon": 10.4022043,
      "tags": {
        "name": "Tinkabelle Dancewear",
        "opening_hours": "\"on appointment\"",
        "shop": "clothes",
        "website": "https://tinkabelle.no/"
      }
    },
    {
      "type": "node",
      "id": 3060093866,
      "lat": 63.4333622,
      "lon": 10.3930225,
      "tags": {
        "alt_name": "Simon Petersen AS",
        "name": "Simon Sko",
        "shop": "shoes",
        "website": "https://www.facebook.com/pages/Simon-Petersen-as/342919129160109",
        "wheelchair": "no"
      }
    },
    {
      "type": "node",
      "id": 3070527093,
      "lat": 63.4285843,
      "lon": 10.3663947,
      "tags": {
        "name": "Chaplin",
        "shop": "hairdresser",
        "website": "https://www.chaplinfris\u00f8r.no/"
      }
    },
    {
      "type": "node",
      "id": 3077808464,
      "lat": 63.4312619,
      "lon": 10.3904207,
      "tags": {
        "name": "Remove Skin Clinic",
        "shop": "beauty"
      }
    },
    {
      "type": "node",
      "id": 3080917759,
      "lat": 63.4310027,
      "lon": 10.3905352,
      "tags": {
        "name": "Aftermath Music",
        "opening_hours": "Mo-Fr 13:00-18:00; Sa 12:00-16:00",
        "shop": "music",
        "website": "https://www.aftermath-music.com/",
        "wheelchair": "no"
      }
    },
    {
      "type": "node",
      "id": 3080917760,
      "lat": 63.4315487,
      "lon": 10.389687,
      "tags": {
        "check_date": "2023-09-09",
        "name": "Berge interi\u00f8r",
        "opening_hours": "Mo-Fr 10:00-17:00; Th 10:00-18:00; Sa 10:00-15:00",
        "shop": "furniture",
        "website": "https://bergeinterior.no/",
        "wheelchair": "limited"
      }
    },
    {
      "type": "node",
      "id": 3080917766,
      "lat": 63.4311372,
      "lon": 10.3904696,
      "tags": {
        "check_date": "2023-08-27",
        "name": "Sykepleieartikler",
        "opening_hours": "Mo-Fr 10:00-16:00; Th 10:00-17:00",
        "shop": "medical_supply",
        "website": "http://www.sykepleieartikler.no/",
        "wheelchair": "limited"
      }
    },
    {
      "type": "node",
      "id": 3080917767,
      "lat": 63.4314249,
      "lon": 10.3903923,
      "tags": {
        "name": "Tr\u00f8nderfrim",
        "opening_hours": "Mo-Fr 10:00-17:00; Sa 10:00-15:00",
        "shop": "toys",
        "website": "https://www.tronderfrim.no/",
        "wheelchair": "no"
      }
    },
    {
      "type": "node",
      "id": 3080917770,
      "lat": 63.4310406,
      "lon": 10.3905236,
      "tags": {
        "check_date:opening_hours": "2023-08-27",
        "male": "yes",
        "name": "Herrefris\u00f8r",
        "opening_hours": "Mo-Fr 08:30-16:00",
        "shop": "hairdresser",
        "wheelchair": "no"
      }
    },
    {
      "type": "node",
      "id": 3097492387,
      "lat": 63.4378567,
      "lon": 10.4638712,
      "tags": {
        "brand": "Power",
        "brand:wikidata": "Q20857751",
        "brand:wikipedia": "fi:Power",
        "name": "Power",
        "opening_hours": "Mo-Fr 10:00-20:00; Sa 10:00-18:00",
        "shop": "electronics",
        "website": "https://www.expert.no/"
      }
    },
    {
      "type": "node",
      "id": 3097492388,
      "lat": 63.441992,
      "lon": 10.458537,
      "tags": {
        "branch": "Lade Arena",
        "brand": "Rema 1000",
        "email": "lade.arena@rema.no",
        "level": "0",
        "name": "Rema 1000 Lade Arena",
        "opening_hours": "Mo-Sa 07:00-23:00",
        "phone": "+47 73521120",
        "ref:rema": "1555725",
        "shop": "supermarket",
        "website": "https://butikk.rema.no/REMA+1000+Lade+Arena/1555725",
        "wheelchair": "yes"
      }
    },
    {
      "type": "node",
      "id": 3097492389,
      "lat": 63.4413709,
      "lon": 10.4583054,
      "tags": {
        "branch": "Trondheim Lade",
        "brand": "Biltema",
        "email": "lade@biltema.com",
        "level": "1",
        "name": "Biltema Trondheim Lade",
        "opening_hours": "Mo-Fr 08:00-20:00; Sa 09:00-18:00",
        "ref:biltema": "275",
        "shop": "doityourself",
        "website": "https://www.biltema.no/varehus/lade/"
      }
    },
    {
      "type": "node",
      "id": 3097492391,
      "lat": 63.439781,
      "lon": 10.4633321,
      "tags": {
        "brand": "Tesla",
        "level": "0",
        "name": "Tesla Trondheim",
        "ref:teslastore": "trondheim",
        "service:vehicle:car_repair": "yes",
        "service:vehicle:new_car_sales": "yes",
        "shop": "car",
        "website": "https://www.tesla.com/no_NO/findus/location/store/trondheim"
      }
    },
    {
      "type": "node",
      "id": 3105374051,
      "lat": 63.433846,
      "lon": 10.5033797,
      "tags": {
        "name": "Lavendel Blomster og Interi\u00f8r",
        "shop": "florist"
      }
    },
    {
      "type": "node",
      "id": 3105374052,
      "lat": 63.4339241,
      "lon": 10.5025428,
      "tags": {
        "name": "Nille",
        "shop": "variety_store"
      }
    },
    {
      "type": "node",
      "id": 3124111098,
      "lat": 63.4331408,
      "lon": 10.397661,
      "tags": {
        "name": "Deli de Luca",
        "shop": "kiosk"
      }
    },
    {
      "type": "node",
      "id": 3124117861,
      "lat": 63.4328029,
      "lon": 10.398125,
      "tags": {
        "name": "Godt Br\u00f8d",
        "opening_hours": "Mo-Sa 06:00-18:00",
        "shop": "bakery",
        "website": "https://www.godtbrod.no/Bakeverksted/Trondhjem",
        "wheelchair": "no"
      }
    },
    {
      "type": "node",
      "id": 3124188106,
      "lat": 63.4339541,
      "lon": 10.3958367,
      "tags": {
        "name": "Orient - Asiatiske dagligvarer",
        "shop": "convenience"
      }
    },
    {
      "type": "node",
      "id": 3214318857,
      "lat": 63.432076,
      "lon": 10.395381,
      "tags": {
        "name": "Te og Kaffehuset",
        "opening_hours": "Mo-Sa 10:00-18:00",
        "phone": "+47 73 53 42 50",
        "shop": "tea",
        "website": "https://www.teogkaffehuset.no/"
      }
    },
    {
      "type": "node",
      "id": 3225752840,
      "lat": 63.4411272,
      "lon": 10.4589961,
      "tags": {
        "branch": "Lade, Trondheim",
        "brand": "Jysk",
        "level": "1",
        "name": "Jysk Lade, Trondheim",
        "opening_hours": "Mo-Fr 10:00-20:00, Sa 10:00-18:00",
        "phone": "+47 73918470",
        "ref:jysk": "N572",
        "shop": "furniture"
      }
    },
    {
      "type": "node",
      "id": 3225752841,
      "lat": 63.4415427,
      "lon": 10.4594743,
      "tags": {
        "level": "0",
        "name": "Kid interi\u00f8r",
        "opening_hours": "Mo-Fr 10:00-20:00; Sa 10:00-18:00",
        "shop": "interior_decoration",
        "website": "http://butikk.kid.no/Kid+Lade%2C+Trondheim/1658909"
      }
    },
    {
      "type": "node",
      "id": 3225752842,
      "lat": 63.4417359,
      "lon": 10.4595173,
      "tags": {
        "branch": "Lade",
        "brand": "Skeidar",
        "email": "selgere.lade@skeidar.no",
        "level": "1",
        "name": "Skeidar Lade",
        "opening_hours": "Mo-Sa 10:00-18:00",
        "phone": "+47 73 50 98 80",
        "ref:skeidar": "9967",
        "shop": "furniture",
        "website": "https://www.skeidar.no/butikker/trondelag/lade/"
      }
    },
    {
      "type": "node",
      "id": 3225752843,
      "lat": 63.4409619,
      "lon": 10.4613691,
      "tags": {
        "branch": "Lade",
        "brand": "M\u00f8belringen",
        "email": "post.lade@mobelringen.com",
        "level": "0",
        "name": "M\u00f8belringen Lade",
        "opening_hours": "Mo-Fr 10:00-20:00, Sa 10:00-16:00",
        "phone": "+47 73849595",
        "ref:m\u00f8belringen": "850",
        "shop": "furniture",
        "website": "https://www.mobelringen.no/"
      }
    },
    {
      "type": "node",
      "id": 3230730630,
      "lat": 63.4399175,
      "lon": 10.4627879,
      "tags": {
        "level": "0",
        "name": "Hund som Hobby",
        "opening_hours": "Mo-Fr 10:00-20:00; Sa 10:00-18:00",
        "shop": "pet",
        "website": "https://hundsomhobby.no/"
      }
    },
    {
      "type": "node",
      "id": 3230730631,
      "lat": 63.440431,
      "lon": 10.4642875,
      "tags": {
        "name": "Lade All\u00e9 Hudklinikk",
        "opening_hours": "Mo,Fr 09:00-15:00; Tu,Th 09:00-19:00; We 12:00-19:00",
        "shop": "beauty",
        "website": "http://www.ladehud.no/"
      }
    },
    {
      "type": "node",
      "id": 3230730632,
      "lat": 63.4400971,
      "lon": 10.4619912,
      "tags": {
        "level": "0",
        "name": "TAM Lade",
        "opening_hours": "Mo-Fr 10:00-20:00; Sa 10:00-18:00",
        "shop": "pet",
        "website": "https://www.tropehagen.no/default.aspx?pageId=10"
      }
    },
    {
      "type": "node",
      "id": 3230730633,
      "lat": 63.44048,
      "lon": 10.4628299,
      "tags": {
        "alt_name": "thansen",
        "branch": "Lade",
        "brand": "T. Hansen",
        "level": "0",
        "name": "T. Hansen Lade",
        "opening_hours": "Mo-Fr 10:00-20:00, Sa 10:00-18:00",
        "ref:thansen": "lade",
        "shop": "car_parts",
        "website": "https://www.thansen.no/butikker/lade"
      }
    },
    {
      "type": "node",
      "id": 3230730634,
      "lat": 63.4403601,
      "lon": 10.4623465,
      "tags": {
        "level": "0",
        "name": "Urban Hair",
        "opening_hours": "Mo-Fr 10:00-20:00; Sa 10:00-18:00",
        "shop": "hairdresser",
        "website": "http://www.urbanhair.no/"
      }
    },
    {
      "type": "node",
      "id": 3240235707,
      "lat": 63.430214,
      "lon": 10.393286,
      "tags": {
        "alt_name": "Vinmonopolet Trondheim, Trondheim torg",
        "branch": "Trondheim torg",
        "brand": "Vinmonopolet",
        "brand:wikidata": "Q1740534",
        "brand:wikipedia": "en:Vinmonopolet",
        "level": "-1",
        "name": "Vinmonopolet Trondheim torg",
        "opening_hours": "Mo-Fr 10:00-18:00, Sa 10:00-16:00",
        "phone": "+47 22 01 50 00",
        "ref:vinmonopolet": "160",
        "shop": "alcohol",
        "start_date": "2021-01-28"
      }
    },
    {
      "type": "node",
      "id": 3240235714,
      "lat": 63.4300343,
      "lon": 10.3932945,
      "tags": {
        "level": "0",
        "shop": "ticket"
      }
    },
    {
      "type": "node",
      "id": 3249382135,
      "lat": 63.4299004,
      "lon": 10.392096,
      "tags": {
        "name": "Ruby Fris\u00f8rteam",
        "opening_hours": "Mo-We 09:00-17:00; Th 09:00-18:00; Fr 09:00-17:00; Sa 10:00-15:00",
        "phone": "+47 73 53 51 53",
        "shop": "hairdresser",
        "website": "http://www.rubyfrisorteam.no/"
      }
    },
    {
      "type": "node",
      "id": 3249382136,
      "lat": 63.4303145,
      "lon": 10.3919652,
      "tags": {
        "female": "yes",
        "male": "yes",
        "name": "Sjakk Matt",
        "opening_hours": "Mo-Fr 09:00-20:00; Sa 10:00-18:00",
        "phone": "+47 46 95 21 00",
        "shop": "hairdresser",
        "website": "http://sjakkmatt.no/prinsenkrysset/",
        "wheelchair": "yes"
      }
    },
    {
      "type": "node",
      "id": 3250282078,
      "lat": 63.4304093,
      "lon": 10.3900762,
      "tags": {
        "female:signed": "no",
        "male:signed": "no",
        "name": "Afro Jona Pro",
        "phone": "+47 98 89 15 36",
        "shop": "hairdresser",
        "website": "https://www.facebook.com/AfroJonaPro/",
        "wheelchair": "no"
      }
    },
    {
      "type": "node",
      "id": 3250282085,
      "lat": 63.4304087,
      "lon": 10.3910995,
      "tags": {
        "name": "ESP Renseri & Skjorteservice",
        "opening_hours": "Mo-Fr 09:00-17:00; Sa 10:00-14:00",
        "phone": "+47 73 522760",
        "shop": "dry_cleaning",
        "website": "https://esp.no/",
        "wheelchair": "no"
      }
    },
    {
      "type": "node",
      "id": 3250282088,
      "lat": 63.4320892,
      "lon": 10.3911494,
      "tags": {
        "check_date:opening_hours": "2022-06-17",
        "name": "Flaming Heart Tattoo",
        "opening_hours": "Tu-Sa 10:00-17:00",
        "phone": "+47 94 78 45 00",
        "shop": "tattoo",
        "website": "https://flaminghearttattoo.no/",
        "wheelchair": "no"
      }
    },
    {
      "type": "node",
      "id": 3250282094,
      "lat": 63.4321035,
      "lon": 10.3921893,
      "tags": {
        "branch": "Eggen",
        "brand": "Jernia",
        "check_date:opening_hours": "2021-11-01",
        "email": "post@jerniaeggen.no",
        "name": "Jernia Eggen",
        "opening_hours": "Mo-Fr 09:00-18:00, Sa 10:00-18:00",
        "phone": "+47 73 87 43 87",
        "ref:jernia": "8857631981591",
        "shop": "hardware",
        "website": "http://butikk.jernia.no/Jernia+Eggen/1952788"
      }
    },
    {
      "type": "node",
      "id": 3250282100,
      "lat": 63.4320926,
      "lon": 10.3913088,
      "tags": {
        "name": "Salong Fateme",
        "opening_hours": "Mo-Fr 09:30-17:00",
        "phone": "+47 73 503360",
        "shop": "hairdresser",
        "wheelchair": "no"
      }
    },
    {
      "type": "node",
      "id": 3250282102,
      "lat": 63.4321192,
      "lon": 10.391532,
      "tags": {
        "facebook": "https://www.facebook.com/fruktkorga/",
        "name": "Melon Midtbyen",
        "old_name": "Tahir Market; Fruktkorga; Eksotisk Marked",
        "opening_hours": "Mo-Sa 10:00-20:30, Su 11:00-19:00",
        "opening_hours:signed": "no",
        "shop": "supermarket",
        "website": "https://www.facebook.com/melon.midtbyen/",
        "wheelchair": "limited"
      }
    },
    {
      "type": "node",
      "id": 3250282118,
      "lat": 63.431912,
      "lon": 10.3894078,
      "tags": {
        "check_date": "2022-08-03",
        "shop": "vacant"
      }
    },
    {
      "type": "node",
      "id": 3268570533,
      "lat": 63.4320954,
      "lon": 10.3925384,
      "tags": {
        "name": "Erotikk1",
        "opening_hours": "Mo-Fr 10:00-20:00; Sa 10:00-18:00",
        "shop": "erotic",
        "website": "https://erotikk1.no/",
        "wheelchair": "yes"
      }
    },
    {
      "type": "node",
      "id": 3268570534,
      "lat": 63.430911,
      "lon": 10.391723,
      "tags": {
        "branch": "Prinsen",
        "brand": "Bunnpris",
        "brand:wikidata": "Q1774634",
        "email": "bpprinsen@bunnpris.no",
        "name": "Bunnpris Prinsen",
        "opening_hours": "Mo-Fr 07:00-23:00, Sa 09:00-21:00",
        "phone": "+47 48211045",
        "ref:bunnpris": "7562",
        "shop": "supermarket",
        "wheelchair": "yes"
      }
    },
    {
      "type": "node",
      "id": 3268570538,
      "lat": 63.4313003,
      "lon": 10.3912677,
      "tags": {
        "check_date": "2023-05-09",
        "shop": "vacant"
      }
    },
    {
      "type": "node",
      "id": 3268570540,
      "lat": 63.4320977,
      "lon": 10.390913,
      "tags": {
        "check_date:opening_hours": "2023-08-27",
        "name": "Riibe Mynthandel",
        "opening_hours": "Mo-Fr 10:00-17:00; Sa 11:00-15:00",
        "shop": "jewelry",
        "website": "http://www.riibe.com/",
        "wheelchair": "limited"
      }
    },
    {
      "type": "node",
      "id": 3268570541,
      "lat": 63.4314455,
      "lon": 10.3906956,
      "tags": {
        "name": "Salong Trendy",
        "opening_hours": "Tu,Th 09:00-18:00, Mo,We,Fr 09:00-17:00",
        "shop": "hairdresser",
        "website": "https://www.facebook.com/salongtrendy/",
        "wheelchair": "no"
      }
    },
    {
      "type": "node",
      "id": 3268570543,
      "lat": 63.4320998,
      "lon": 10.3923705,
      "tags": {
        "name": "Golden saks",
        "opening_hours": "Mo-Sa 10:00-18:00",
        "shop": "hairdresser",
        "website": "https://www.facebook.com/Goldensaksas",
        "wheelchair": "yes"
      }
    },
    {
      "type": "node",
      "id": 3268975439,
      "lat": 63.4316177,
      "lon": 10.3922668,
      "tags": {
        "name": "Benja Siam Thai spa",
        "opening_hours": "Mo-Fr 10:00-20:00; Sa 10:00-18:00",
        "shop": "beauty",
        "website": "https://www.facebook.com/benja.siam.thai.spa/",
        "wheelchair": "no"
      }
    },
    {
      "type": "node",
      "id": 3269763685,
      "lat": 63.4315192,
      "lon": 10.3929224,
      "tags": {
        "name": "Trondhjems Fotterapi",
        "shop": "beauty",
        "website": "https://www.facebook.com/p/Trondhjems-Fotterapi-100031868786620/"
      }
    },
    {
      "type": "node",
      "id": 3269763686,
      "lat": 63.4315352,
      "lon": 10.3932024,
      "tags": {
        "female": "yes",
        "male": "yes",
        "name": "Chi Salongen",
        "shop": "hairdresser",
        "website": "https://www.facebook.com/chisalongen"
      }
    },
    {
      "type": "node",
      "id": 3269763687,
      "lat": 63.4315286,
      "lon": 10.3927773,
      "tags": {
        "name": "D\u00f8svik Fris\u00f8r",
        "shop": "hairdresser"
      }
    },
    {
      "type": "node",
      "id": 3269763688,
      "lat": 63.4315227,
      "lon": 10.3930504,
      "tags": {
        "name": "Selihom fris\u00f8r",
        "opening_hours": "Mo-Fr 10:00-20:00; Sa 10:00-18:00",
        "shop": "hairdresser",
        "website": "https://www.facebook.com/p/Selihom-Fris%C3%B8r-100063458654895/",
        "wheelchair": "no"
      }
    },
    {
      "type": "node",
      "id": 3269763689,
      "lat": 63.4315136,
      "lon": 10.3924624,
      "tags": {
        "name": "Bannthai Massasje",
        "opening_hours": "Mo-Sa 11:00-20:00",
        "shop": "massage"
      }
    },
    {
      "type": "node",
      "id": 3271492631,
      "lat": 63.4312162,
      "lon": 10.3942238,
      "tags": {
        "name": "Big Foot",
        "shop": "shoes",
        "website": "https://www.facebook.com/BigFootTrondheim/"
      }
    },
    {
      "type": "node",
      "id": 3271492633,
      "lat": 63.4316238,
      "lon": 10.3939216,
      "tags": {
        "check_date:opening_hours": "2023-05-09",
        "name": "Intersport",
        "opening_hours": "Mo-Fr 09:00-18:00; Sa 10:00-18:00",
        "shop": "sports"
      }
    },
    {
      "type": "node",
      "id": 3271492635,
      "lat": 63.4312788,
      "lon": 10.3941884,
      "tags": {
        "name": "Hair cut",
        "opening_hours": "Mo-Sa 10:00-18:00",
        "shop": "hairdresser"
      }
    },
    {
      "type": "node",
      "id": 3271492653,
      "lat": 63.4307708,
      "lon": 10.3928361,
      "tags": {
        "name": "Quality Fris\u00f8r AS",
        "opening_hours": "Mo-Fr 10:00-18:00; Sa 10:00-17:00",
        "shop": "hairdresser"
      }
    },
    {
      "type": "node",
      "id": 3273863185,
      "lat": 63.4324857,
      "lon": 10.3934635,
      "tags": {
        "check_date:opening_hours": "2023-08-27",
        "name": "A.F. Wigen",
        "opening_hours": "Th 10:00-18:00; Sa 10:00-16:00; Mo-We,Fr 10:00-17:00",
        "shop": "fabric",
        "website": "https://www.facebook.com/afwigen",
        "wheelchair": "no"
      }
    },
    {
      "type": "node",
      "id": 3273863187,
      "lat": 63.4327712,
      "lon": 10.3933728,
      "tags": {
        "name": "Solsiden Spa, avd Midtbyen",
        "old_name": "Bentes Parfymeri",
        "opening_hours": "Mo-Sa 10:00-18:00",
        "shop": "beauty",
        "website": "https://solsidenspa.no/avdelinger/midtbyen/"
      }
    },
    {
      "type": "node",
      "id": 3273863188,
      "lat": 63.4330521,
      "lon": 10.3931838,
      "tags": {
        "check_date:opening_hours": "2022-08-13",
        "name": "Coma Fris\u00f8r",
        "opening_hours": "Mo,Tu 09:00-18:00; We,Th 10:00-20:00; Fr 09:00-18:00; Sa 09:00-16:00",
        "shop": "hairdresser",
        "website": "http://www.comafris\u00f8r.no/",
        "wheelchair": "no"
      }
    },
    {
      "type": "node",
      "id": 3273863190,
      "lat": 63.4320602,
      "lon": 10.3970128,
      "tags": {
        "female": "yes",
        "male": "yes",
        "name": "H2 Fris\u00f8r Dronningensgate",
        "opening_hours": "Mo-Sa 09:00-18:00",
        "shop": "hairdresser",
        "website": "https://www.h2.no/salonger-oversikt/h2-frisor-dronningensgate/"
      }
    },
    {
      "type": "node",
      "id": 3273863192,
      "lat": 63.4325958,
      "lon": 10.3934062,
      "tags": {
        "brand": "Lindex",
        "brand:wikidata": "Q1786717",
        "brand:wikipedia": "en:Lindex",
        "name": "Lindex",
        "opening_hours": "Mo-Fr 10:00-18:00; Sa 10:00-17:00",
        "shop": "clothes",
        "website": "https://www.lindex.com/no/",
        "wheelchair": "yes"
      }
    },
    {
      "type": "node",
      "id": 3273863194,
      "lat": 63.4309976,
      "lon": 10.3970791,
      "tags": {
        "check_date:opening_hours": "2022-06-17",
        "email": "ciao@salottotrondheim.no",
        "female": "yes",
        "level": "1",
        "male": "yes",
        "name": "Salotto",
        "opening_hours": "Mo-We 10:00-18:00; Th 10:00-19:00; Fr 10:00-18:00; Sa 10:00-16:00",
        "payment:debit_cards": "yes",
        "phone": "+47 73 50 50 51",
        "ref:vatin": "917021597",
        "shop": "hairdresser",
        "website": "https://salottotrondheim.no/",
        "wheelchair": "no"
      }
    },